{"type":"FeatureCollection","features":[{"type":"Feature","id":1,"geometry":{"type":"Point","coordinates":[110.42352990000006,-7.7645915999999602,0]},"properties":{"OBJECTID":1,"Name":"Halte RRU Instiper 2","FolderPath":"overpass-turbo.eu export","SymbolID":0,"AltMode":-1,"Base":0,"Snippet":"","PopupInfo":"","HasLabel":-1,"LabelID":0}},{"type":"Feature","id":2,"geometry":{"type":"Point","coordinates":[110.35152760000005,-7.8004999999999427,0]},"properties":{"OBJECTID":2,"Name":"Stop-an Bis JOGJA - TEMPEL","FolderPath":"overpass-turbo.eu export","SymbolID":0,"AltMode":-1,"Base":0,"Snippet":"","PopupInfo":"","HasLabel":-1,"LabelID":0}},{"type":"Feature","id":3,"geometry":{"type":"Point","coordinates":[110.36766050000006,-7.7504496999999333,0]},"properties":{"OBJECTID":3,"Name":"Halte RRU Monjali 1","FolderPath":"overpass-turbo.eu export","SymbolID":0,"AltMode":-1,"Base":0,"Snippet":"","PopupInfo":"","HasLabel":-1,"LabelID":0}},{"type":"Feature","id":4,"geometry":{"type":"Point","coordinates":[110.38391510000008,-7.7552438999999254,0]},"properties":{"OBJECTID":4,"Name":"Halte TJ RRU Kentungan","FolderPath":"overpass-turbo.eu export","SymbolID":0,"AltMode":-1,"Base":0,"Snippet":"","PopupInfo":"","HasLabel":-1,"LabelID":0}},{"type":"Feature","id":5,"geometry":{"type":"Point","coordinates":[110.36881690000007,-7.7509062999999401,0]},"properties":{"OBJECTID":5,"Name":"Halte RRU Monjali 2","FolderPath":"overpass-turbo.eu export","SymbolID":0,"AltMode":-1,"Base":0,"Snippet":"","PopupInfo":"","HasLabel":-1,"LabelID":0}},{"type":"Feature","id":6,"geometry":{"type":"Point","coordinates":[110.39581700000008,-7.7566909999999325,0]},"properties":{"OBJECTID":6,"Name":"Terminal Condong Catur","FolderPath":"overpass-turbo.eu export","SymbolID":0,"AltMode":-1,"Base":0,"Snippet":"","PopupInfo":"","HasLabel":-1,"LabelID":0}},{"type":"Feature","id":7,"geometry":{"type":"Point","coordinates":[110.38633460000005,-7.758149499999945,0]},"properties":{"OBJECTID":7,"Name":"TPB RRU Manggung","FolderPath":"overpass-turbo.eu export","SymbolID":0,"AltMode":-1,"Base":0,"Snippet":"","PopupInfo":"","HasLabel":-1,"LabelID":0}},{"type":"Feature","id":8,"geometry":{"type":"Point","coordinates":[110.37513120000006,-7.7823789999999349,0]},"properties":{"OBJECTID":8,"Name":"Halte Cik Di Tiro 1","FolderPath":"overpass-turbo.eu export","SymbolID":0,"AltMode":-1,"Base":0,"Snippet":"","PopupInfo":"","HasLabel":-1,"LabelID":0}},{"type":"Feature","id":9,"geometry":{"type":"Point","coordinates":[110.37517960000008,-7.7811957999999777,0]},"properties":{"OBJECTID":9,"Name":"Halte TJ Cik Di Tiro 2","FolderPath":"overpass-turbo.eu export","SymbolID":0,"AltMode":-1,"Base":0,"Snippet":"","PopupInfo":"","HasLabel":-1,"LabelID":0}},{"type":"Feature","id":10,"geometry":{"type":"Point","coordinates":[110.37864720000005,-7.7761397999999531,0]},"properties":{"OBJECTID":10,"Name":"Halte Jl. Colombo (Kosudgama)","FolderPath":"overpass-turbo.eu export","SymbolID":0,"AltMode":-1,"Base":0,"Snippet":"","PopupInfo":"","HasLabel":-1,"LabelID":0}},{"type":"Feature","id":11,"geometry":{"type":"Point","coordinates":[110.37821030000003,-7.7762191999999573,0]},"properties":{"OBJECTID":11,"Name":"Halte Jl. Colombo (Panti Rapih)","FolderPath":"overpass-turbo.eu export","SymbolID":0,"AltMode":-1,"Base":0,"Snippet":"","PopupInfo":"","HasLabel":-1,"LabelID":0}},{"type":"Feature","id":12,"geometry":{"type":"Point","coordinates":[110.38769880000007,-7.7776595999999358,0]},"properties":{"OBJECTID":12,"Name":"Halte Jl. Colombo (Samirono)","FolderPath":"overpass-turbo.eu export","SymbolID":0,"AltMode":-1,"Base":0,"Snippet":"","PopupInfo":"","HasLabel":-1,"LabelID":0}},{"type":"Feature","id":13,"geometry":{"type":"Point","coordinates":[110.38656050000009,-7.7777676999999699,0]},"properties":{"OBJECTID":13,"Name":"Halte Jl. Colombo (UNY)","FolderPath":"overpass-turbo.eu export","SymbolID":0,"AltMode":-1,"Base":0,"Snippet":"","PopupInfo":"","HasLabel":-1,"LabelID":0}},{"type":"Feature","id":14,"geometry":{"type":"Point","coordinates":[110.38915380000009,-7.7750233999999523,0]},"properties":{"OBJECTID":14,"Name":"Halte Sanata Dharma","FolderPath":"overpass-turbo.eu export","SymbolID":0,"AltMode":-1,"Base":0,"Snippet":"","PopupInfo":"","HasLabel":-1,"LabelID":0}},{"type":"Feature","id":15,"geometry":{"type":"Point","coordinates":[110.39190550000006,-7.7663717999999449,0]},"properties":{"OBJECTID":15,"Name":"Halte Santren","FolderPath":"overpass-turbo.eu export","SymbolID":0,"AltMode":-1,"Base":0,"Snippet":"","PopupInfo":"","HasLabel":-1,"LabelID":0}},{"type":"Feature","id":16,"geometry":{"type":"Point","coordinates":[110.39233420000005,-7.7658986999999797,0]},"properties":{"OBJECTID":16,"Name":"TPB Susteran Novisiat","FolderPath":"overpass-turbo.eu export","SymbolID":0,"AltMode":-1,"Base":0,"Snippet":"","PopupInfo":"","HasLabel":-1,"LabelID":0}},{"type":"Feature","id":17,"geometry":{"type":"Point","coordinates":[110.38906130000004,-7.7750165999999581,0]},"properties":{"OBJECTID":17,"Name":"Halte TJ UNY Gejayan","FolderPath":"overpass-turbo.eu export","SymbolID":0,"AltMode":-1,"Base":0,"Snippet":"","PopupInfo":"","HasLabel":-1,"LabelID":0}},{"type":"Feature","id":18,"geometry":{"type":"Point","coordinates":[110.37544020000007,-7.7874001999999791,0]},"properties":{"OBJECTID":18,"Name":"Halte TJ Yos Sudarso","FolderPath":"overpass-turbo.eu export","SymbolID":0,"AltMode":-1,"Base":0,"Snippet":"","PopupInfo":"","HasLabel":-1,"LabelID":0}},{"type":"Feature","id":19,"geometry":{"type":"Point","coordinates":[110.38318880000008,-7.7975165999999376,0]},"properties":{"OBJECTID":19,"Name":"Halte TJ Kenari 1","FolderPath":"overpass-turbo.eu export","SymbolID":0,"AltMode":-1,"Base":0,"Snippet":"","PopupInfo":"","HasLabel":-1,"LabelID":0}},{"type":"Feature","id":20,"geometry":{"type":"Point","coordinates":[110.38338120000009,-7.7974568999999292,0]},"properties":{"OBJECTID":20,"Name":"Halte TJ Kenari 2","FolderPath":"overpass-turbo.eu export","SymbolID":0,"AltMode":-1,"Base":0,"Snippet":"","PopupInfo":"","HasLabel":-1,"LabelID":0}},{"type":"Feature","id":21,"geometry":{"type":"Point","coordinates":[110.37771670000006,-7.795661799999948,0]},"properties":{"OBJECTID":21,"Name":"STP SMP Kanisius Kota 2","FolderPath":"overpass-turbo.eu export","SymbolID":0,"AltMode":-1,"Base":0,"Snippet":"","PopupInfo":"","HasLabel":-1,"LabelID":0}},{"type":"Feature","id":22,"geometry":{"type":"Point","coordinates":[110.38479510000008,-7.7984439999999609,0]},"properties":{"OBJECTID":22,"Name":"TPB Among Rogo Kota 2","FolderPath":"overpass-turbo.eu export","SymbolID":0,"AltMode":-1,"Base":0,"Snippet":"","PopupInfo":"","HasLabel":-1,"LabelID":0}},{"type":"Feature","id":23,"geometry":{"type":"Point","coordinates":[110.37788180000007,-7.7956045999999333,0]},"properties":{"OBJECTID":23,"Name":"STP SMP Kanisius Kota","FolderPath":"overpass-turbo.eu export","SymbolID":0,"AltMode":-1,"Base":0,"Snippet":"","PopupInfo":"","HasLabel":-1,"LabelID":0}},{"type":"Feature","id":24,"geometry":{"type":"Point","coordinates":[110.38489980000008,-7.7984746999999288,0]},"properties":{"OBJECTID":24,"Name":"TPB Among Rogo Kota 1","FolderPath":"overpass-turbo.eu export","SymbolID":0,"AltMode":-1,"Base":0,"Snippet":"","PopupInfo":"","HasLabel":-1,"LabelID":0}},{"type":"Feature","id":25,"geometry":{"type":"Point","coordinates":[110.40224390000009,-7.8074718999999391,0]},"properties":{"OBJECTID":25,"Name":"Halte Gedong Kuning Banguntapan","FolderPath":"overpass-turbo.eu export","SymbolID":0,"AltMode":-1,"Base":0,"Snippet":"","PopupInfo":"","HasLabel":-1,"LabelID":0}},{"type":"Feature","id":26,"geometry":{"type":"Point","coordinates":[110.40108980000008,-7.819607499999961,0]},"properties":{"OBJECTID":26,"Name":"Halte Gedong Kuning","FolderPath":"overpass-turbo.eu export","SymbolID":0,"AltMode":-1,"Base":0,"Snippet":"","PopupInfo":"","HasLabel":-1,"LabelID":0}},{"type":"Feature","id":27,"geometry":{"type":"Point","coordinates":[110.39987320000006,-7.8021406999999385,0]},"properties":{"OBJECTID":27,"Name":"Halte Kusumanegara Gedung 45","FolderPath":"overpass-turbo.eu export","SymbolID":0,"AltMode":-1,"Base":0,"Snippet":"","PopupInfo":"","HasLabel":-1,"LabelID":0}},{"type":"Feature","id":28,"geometry":{"type":"Point","coordinates":[110.39873190000009,-7.8022856999999703,0]},"properties":{"OBJECTID":28,"Name":"Halte Kusumanegara Gembira Loka","FolderPath":"overpass-turbo.eu export","SymbolID":0,"AltMode":-1,"Base":0,"Snippet":"","PopupInfo":"","HasLabel":-1,"LabelID":0}},{"type":"Feature","id":29,"geometry":{"type":"Point","coordinates":[110.39305120000006,-7.8020696999999473,0]},"properties":{"OBJECTID":29,"Name":"Halte Kusumanegara 3","FolderPath":"overpass-turbo.eu export","SymbolID":0,"AltMode":-1,"Base":0,"Snippet":"","PopupInfo":"","HasLabel":-1,"LabelID":0}},{"type":"Feature","id":30,"geometry":{"type":"Point","coordinates":[110.39335830000005,-7.8021569999999656,0]},"properties":{"OBJECTID":30,"Name":"Halte Kusumanegara 4","FolderPath":"overpass-turbo.eu export","SymbolID":0,"AltMode":-1,"Base":0,"Snippet":"","PopupInfo":"","HasLabel":-1,"LabelID":0}},{"type":"Feature","id":31,"geometry":{"type":"Point","coordinates":[110.40210070000006,-7.8080009999999334,0]},"properties":{"OBJECTID":31,"Name":"TPB Banguntapan 1 Gedong Kuning","FolderPath":"overpass-turbo.eu export","SymbolID":0,"AltMode":-1,"Base":0,"Snippet":"","PopupInfo":"","HasLabel":-1,"LabelID":0}},{"type":"Feature","id":32,"geometry":{"type":"Point","coordinates":[110.38733250000007,-7.8020031999999446,0]},"properties":{"OBJECTID":32,"Name":"TPB Gajah Makam Kota","FolderPath":"overpass-turbo.eu export","SymbolID":0,"AltMode":-1,"Base":0,"Snippet":"","PopupInfo":"","HasLabel":-1,"LabelID":0}},{"type":"Feature","id":33,"geometry":{"type":"Point","coordinates":[110.40182370000008,-7.8181315999999583,0]},"properties":{"OBJECTID":33,"Name":"TPB Purnomo Mebel","FolderPath":"overpass-turbo.eu export","SymbolID":0,"AltMode":-1,"Base":0,"Snippet":"","PopupInfo":"","HasLabel":-1,"LabelID":0}},{"type":"Feature","id":34,"geometry":{"type":"Point","coordinates":[110.40202270000009,-7.813442499999951,0]},"properties":{"OBJECTID":34,"Name":"TPB Pilar 1 Gedong Kuning Kota","FolderPath":"overpass-turbo.eu export","SymbolID":0,"AltMode":-1,"Base":0,"Snippet":"","PopupInfo":"","HasLabel":-1,"LabelID":0}},{"type":"Feature","id":35,"geometry":{"type":"Point","coordinates":[110.40215420000004,-7.8143776999999659,0]},"properties":{"OBJECTID":35,"Name":"TPB Pilar 2 Banguntapan","FolderPath":"overpass-turbo.eu export","SymbolID":0,"AltMode":-1,"Base":0,"Snippet":"","PopupInfo":"","HasLabel":-1,"LabelID":0}},{"type":"Feature","id":36,"geometry":{"type":"Point","coordinates":[110.39788780000003,-7.8198823999999263,0]},"properties":{"OBJECTID":36,"Name":"TPB SMP 9 Basen","FolderPath":"overpass-turbo.eu export","SymbolID":0,"AltMode":-1,"Base":0,"Snippet":"","PopupInfo":"","HasLabel":-1,"LabelID":0}},{"type":"Feature","id":37,"geometry":{"type":"Point","coordinates":[110.39500200000003,-7.8189247999999338,0]},"properties":{"OBJECTID":37,"Name":"Halte Ngeksigondo Diklat PU","FolderPath":"overpass-turbo.eu export","SymbolID":0,"AltMode":-1,"Base":0,"Snippet":"","PopupInfo":"","HasLabel":-1,"LabelID":0}},{"type":"Feature","id":38,"geometry":{"type":"Point","coordinates":[110.36017600000008,-7.8012337999999772,0]},"properties":{"OBJECTID":38,"Name":"Halte KHA Dahlan 1","FolderPath":"overpass-turbo.eu export","SymbolID":0,"AltMode":-1,"Base":0,"Snippet":"","PopupInfo":"","HasLabel":-1,"LabelID":0}},{"type":"Feature","id":39,"geometry":{"type":"Point","coordinates":[110.36040010000005,-7.8011505999999713,0]},"properties":{"OBJECTID":39,"Name":"Halte KHA Dahlan 2","FolderPath":"overpass-turbo.eu export","SymbolID":0,"AltMode":-1,"Base":0,"Snippet":"","PopupInfo":"","HasLabel":-1,"LabelID":0}},{"type":"Feature","id":40,"geometry":{"type":"Point","coordinates":[110.36917050000005,-7.8086510999999632,0]},"properties":{"OBJECTID":40,"Name":"Halte Katamso 1","FolderPath":"overpass-turbo.eu export","SymbolID":0,"AltMode":-1,"Base":0,"Snippet":"","PopupInfo":"","HasLabel":-1,"LabelID":0}},{"type":"Feature","id":41,"geometry":{"type":"Point","coordinates":[110.36916300000007,-7.8026974999999652,0]},"properties":{"OBJECTID":41,"Name":"Halte Katamso 2","FolderPath":"overpass-turbo.eu export","SymbolID":0,"AltMode":-1,"Base":0,"Snippet":"","PopupInfo":"","HasLabel":-1,"LabelID":0}},{"type":"Feature","id":42,"geometry":{"type":"Point","coordinates":[110.35631380000007,-7.8036404999999718,0]},"properties":{"OBJECTID":42,"Name":"Terminal Ngabean","FolderPath":"overpass-turbo.eu export","SymbolID":0,"AltMode":-1,"Base":0,"Snippet":"","PopupInfo":"","HasLabel":-1,"LabelID":0}},{"type":"Feature","id":43,"geometry":{"type":"Point","coordinates":[110.39495810000005,-7.8191225999999574,0]},"properties":{"OBJECTID":43,"Name":"Halte Ngeksigondo Basen","FolderPath":"overpass-turbo.eu export","SymbolID":0,"AltMode":-1,"Base":0,"Snippet":"","PopupInfo":"","HasLabel":-1,"LabelID":0}},{"type":"Feature","id":44,"geometry":{"type":"Point","coordinates":[110.38593530000009,-7.816237899999976,0]},"properties":{"OBJECTID":44,"Name":"Halte PSKY","FolderPath":"overpass-turbo.eu export","SymbolID":0,"AltMode":-1,"Base":0,"Snippet":"","PopupInfo":"","HasLabel":-1,"LabelID":0}},{"type":"Feature","id":45,"geometry":{"type":"Point","coordinates":[110.38748070000008,-7.8155699999999797,0]},"properties":{"OBJECTID":45,"Name":"Halte RSI Hidayatullah","FolderPath":"overpass-turbo.eu export","SymbolID":0,"AltMode":-1,"Base":0,"Snippet":"","PopupInfo":"","HasLabel":-1,"LabelID":0}},{"type":"Feature","id":46,"geometry":{"type":"Point","coordinates":[110.36705130000007,-7.801543899999956,0]},"properties":{"OBJECTID":46,"Name":"Halte Senopati 1","FolderPath":"overpass-turbo.eu export","SymbolID":0,"AltMode":-1,"Base":0,"Snippet":"","PopupInfo":"","HasLabel":-1,"LabelID":0}},{"type":"Feature","id":47,"geometry":{"type":"Point","coordinates":[110.36717400000003,-7.8014052999999421,0]},"properties":{"OBJECTID":47,"Name":"Halte Senopati 2","FolderPath":"overpass-turbo.eu export","SymbolID":0,"AltMode":-1,"Base":0,"Snippet":"","PopupInfo":"","HasLabel":-1,"LabelID":0}},{"type":"Feature","id":48,"geometry":{"type":"Point","coordinates":[110.37008470000006,-7.8148297999999272,0]},"properties":{"OBJECTID":48,"Name":"Halte Kol.Sugiono 1 (Pujokusuman)","FolderPath":"overpass-turbo.eu export","SymbolID":0,"AltMode":-1,"Base":0,"Snippet":"","PopupInfo":"","HasLabel":-1,"LabelID":0}},{"type":"Feature","id":49,"geometry":{"type":"Point","coordinates":[110.37179900000007,-7.815146699999957,0]},"properties":{"OBJECTID":49,"Name":"Halte Sugiono 2","FolderPath":"overpass-turbo.eu export","SymbolID":0,"AltMode":-1,"Base":0,"Snippet":"","PopupInfo":"","HasLabel":-1,"LabelID":0}},{"type":"Feature","id":50,"geometry":{"type":"Point","coordinates":[110.39087910000006,-7.8170032999999535,0]},"properties":{"OBJECTID":50,"Name":"TPB Gambiran 1","FolderPath":"overpass-turbo.eu export","SymbolID":0,"AltMode":-1,"Base":0,"Snippet":"","PopupInfo":"","HasLabel":-1,"LabelID":0}},{"type":"Feature","id":51,"geometry":{"type":"Point","coordinates":[110.39100870000004,-7.8168626999999447,0]},"properties":{"OBJECTID":51,"Name":"TPB Gambiran 2","FolderPath":"overpass-turbo.eu export","SymbolID":0,"AltMode":-1,"Base":0,"Snippet":"","PopupInfo":"","HasLabel":-1,"LabelID":0}},{"type":"Feature","id":52,"geometry":{"type":"Point","coordinates":[110.38032930000008,-7.8164019999999255,0]},"properties":{"OBJECTID":52,"Name":"TPB Pasar Sepeda Tanjungsari","FolderPath":"overpass-turbo.eu export","SymbolID":0,"AltMode":-1,"Base":0,"Snippet":"","PopupInfo":"","HasLabel":-1,"LabelID":0}},{"type":"Feature","id":53,"geometry":{"type":"Point","coordinates":[110.36907840000003,-7.8081763999999794,0]},"properties":{"OBJECTID":53,"Name":"TPB Purawisata","FolderPath":"overpass-turbo.eu export","SymbolID":0,"AltMode":-1,"Base":0,"Snippet":"","PopupInfo":"","HasLabel":-1,"LabelID":0}},{"type":"Feature","id":54,"geometry":{"type":"Point","coordinates":[110.35217020000005,-7.7991409999999632,0]},"properties":{"OBJECTID":54,"Name":"Halte Cokroaminoto SMA 1","FolderPath":"overpass-turbo.eu export","SymbolID":0,"AltMode":-1,"Base":0,"Snippet":"","PopupInfo":"","HasLabel":-1,"LabelID":0}},{"type":"Feature","id":55,"geometry":{"type":"Point","coordinates":[110.35337670000007,-7.7931325999999785,0]},"properties":{"OBJECTID":55,"Name":"Halte SMP N 11","FolderPath":"overpass-turbo.eu export","SymbolID":0,"AltMode":-1,"Base":0,"Snippet":"","PopupInfo":"","HasLabel":-1,"LabelID":0}},{"type":"Feature","id":56,"geometry":{"type":"Point","coordinates":[110.35989050000006,-7.7866426999999589,0]},"properties":{"OBJECTID":56,"Name":"Halte Tentara Pelajar 1 (SMP N 1 14)","FolderPath":"overpass-turbo.eu export","SymbolID":0,"AltMode":-1,"Base":0,"Snippet":"","PopupInfo":"","HasLabel":-1,"LabelID":0}},{"type":"Feature","id":57,"geometry":{"type":"Point","coordinates":[110.35977190000006,-7.7871692999999595,0]},"properties":{"OBJECTID":57,"Name":"Halte Tentara Pelajar 2 (Samsat)","FolderPath":"overpass-turbo.eu export","SymbolID":0,"AltMode":-1,"Base":0,"Snippet":"","PopupInfo":"","HasLabel":-1,"LabelID":0}},{"type":"Feature","id":58,"geometry":{"type":"Point","coordinates":[110.36207200000007,-7.7788262999999347,0]},"properties":{"OBJECTID":58,"Name":"TPB Eks Borobudur Plaza 2","FolderPath":"overpass-turbo.eu export","SymbolID":0,"AltMode":-1,"Base":0,"Snippet":"","PopupInfo":"","HasLabel":-1,"LabelID":0}},{"type":"Feature","id":59,"geometry":{"type":"Point","coordinates":[110.36085980000007,-7.7803658999999357,0]},"properties":{"OBJECTID":59,"Name":"TPB Hotel Utara Kota","FolderPath":"overpass-turbo.eu export","SymbolID":0,"AltMode":-1,"Base":0,"Snippet":"","PopupInfo":"","HasLabel":-1,"LabelID":0}},{"type":"Feature","id":60,"geometry":{"type":"Point","coordinates":[110.35785470000008,-7.7879928999999493,0]},"properties":{"OBJECTID":60,"Name":"TPB Perpusda Samsat Kota Yogya","FolderPath":"overpass-turbo.eu export","SymbolID":0,"AltMode":-1,"Base":0,"Snippet":"","PopupInfo":"","HasLabel":-1,"LabelID":0}},{"type":"Feature","id":61,"geometry":{"type":"Point","coordinates":[110.36765220000007,-7.7773768999999788,0]},"properties":{"OBJECTID":61,"Name":"Halte AM Sangaji 1","FolderPath":"overpass-turbo.eu export","SymbolID":0,"AltMode":-1,"Base":0,"Snippet":"","PopupInfo":"","HasLabel":-1,"LabelID":0}},{"type":"Feature","id":62,"geometry":{"type":"Point","coordinates":[110.36914550000006,-7.7643991999999571,0]},"properties":{"OBJECTID":62,"Name":"TPB Karangjati (AM Sangaji)","FolderPath":"overpass-turbo.eu export","SymbolID":0,"AltMode":-1,"Base":0,"Snippet":"","PopupInfo":"","HasLabel":-1,"LabelID":0}},{"type":"Feature","id":63,"geometry":{"type":"Point","coordinates":[110.36800680000005,-7.775799999999947,0]},"properties":{"OBJECTID":63,"Name":"Halte Susteran Jetis","FolderPath":"overpass-turbo.eu export","SymbolID":0,"AltMode":-1,"Base":0,"Snippet":"","PopupInfo":"","HasLabel":-1,"LabelID":0}},{"type":"Feature","id":64,"geometry":{"type":"Point","coordinates":[110.36672550000009,-7.7778822999999306,0]},"properties":{"OBJECTID":64,"Name":"TPB Wolter Monginsidi","FolderPath":"overpass-turbo.eu export","SymbolID":0,"AltMode":-1,"Base":0,"Snippet":"","PopupInfo":"","HasLabel":-1,"LabelID":0}},{"type":"Feature","id":65,"geometry":{"type":"Point","coordinates":[110.36684510000003,-7.7847508999999491,0]},"properties":{"OBJECTID":65,"Name":"Halte TJ Mangkubumi 1","FolderPath":"overpass-turbo.eu export","SymbolID":0,"AltMode":-1,"Base":0,"Snippet":"","PopupInfo":"","HasLabel":-1,"LabelID":0}},{"type":"Feature","id":66,"geometry":{"type":"Point","coordinates":[110.36651520000004,-7.787643399999979,0]},"properties":{"OBJECTID":66,"Name":"Portabel Mangkubumi 2","FolderPath":"overpass-turbo.eu export","SymbolID":0,"AltMode":-1,"Base":0,"Snippet":"","PopupInfo":"","HasLabel":-1,"LabelID":0}},{"type":"Feature","id":67,"geometry":{"type":"Point","coordinates":[110.36742360000005,-7.7803702999999587,0]},"properties":{"OBJECTID":67,"Name":"STP Kranggan","FolderPath":"overpass-turbo.eu export","SymbolID":0,"AltMode":-1,"Base":0,"Snippet":"","PopupInfo":"","HasLabel":-1,"LabelID":0}},{"type":"Feature","id":68,"geometry":{"type":"Point","coordinates":[110.36501230000005,-7.7998497999999472,0]},"properties":{"OBJECTID":68,"Name":"Halte Malioboro 3","FolderPath":"overpass-turbo.eu export","SymbolID":0,"AltMode":-1,"Base":0,"Snippet":"","PopupInfo":"","HasLabel":-1,"LabelID":0}},{"type":"Feature","id":69,"geometry":{"type":"Point","coordinates":[110.36610250000007,-7.7909056999999393,0]},"properties":{"OBJECTID":69,"Name":"Halte Malioboro 1 (Inna Garuda)","FolderPath":"overpass-turbo.eu export","SymbolID":0,"AltMode":-1,"Base":0,"Snippet":"","PopupInfo":"","HasLabel":-1,"LabelID":0}},{"type":"Feature","id":70,"geometry":{"type":"Point","coordinates":[110.36561070000005,-7.7951650999999629,0]},"properties":{"OBJECTID":70,"Name":"Halte Malioboro 2 (Kepatihan)","FolderPath":"overpass-turbo.eu export","SymbolID":0,"AltMode":-1,"Base":0,"Snippet":"","PopupInfo":"","HasLabel":-1,"LabelID":0}},{"type":"Feature","id":71,"geometry":{"type":"Point","coordinates":[110.37786100000005,-7.7830663999999388,0]},"properties":{"OBJECTID":71,"Name":"Halte Sudirman 1","FolderPath":"overpass-turbo.eu export","SymbolID":0,"AltMode":-1,"Base":0,"Snippet":"","PopupInfo":"","HasLabel":-1,"LabelID":0}},{"type":"Feature","id":72,"geometry":{"type":"Point","coordinates":[110.40285490000008,-7.7984975999999619,0]},"properties":{"OBJECTID":72,"Name":"Halte Gedong Kuning JEC","FolderPath":"overpass-turbo.eu export","SymbolID":0,"AltMode":-1,"Base":0,"Snippet":"","PopupInfo":"","HasLabel":-1,"LabelID":0}},{"type":"Feature","id":73,"geometry":{"type":"Point","coordinates":[110.40641700000003,-7.7986613999999577,0]},"properties":{"OBJECTID":73,"Name":"Halte Gedong Kuning Wonocatur","FolderPath":"overpass-turbo.eu export","SymbolID":0,"AltMode":-1,"Base":0,"Snippet":"","PopupInfo":"","HasLabel":-1,"LabelID":0}},{"type":"Feature","id":74,"geometry":{"type":"Point","coordinates":[110.41978630000006,-7.7832307999999557,0]},"properties":{"OBJECTID":74,"Name":"Halte Jl. Solo (Alfa)","FolderPath":"overpass-turbo.eu export","SymbolID":0,"AltMode":-1,"Base":0,"Snippet":"","PopupInfo":"","HasLabel":-1,"LabelID":0}},{"type":"Feature","id":75,"geometry":{"type":"Point","coordinates":[110.40238780000004,-7.7831566999999495,0]},"properties":{"OBJECTID":75,"Name":"Halte Jl. Solo (Ambarukmo)","FolderPath":"overpass-turbo.eu export","SymbolID":0,"AltMode":-1,"Base":0,"Snippet":"","PopupInfo":"","HasLabel":-1,"LabelID":0}},{"type":"Feature","id":76,"geometry":{"type":"Point","coordinates":[110.39389670000008,-7.7830623999999489,0]},"properties":{"OBJECTID":76,"Name":"Halte Jl. Solo (Debrito)","FolderPath":"overpass-turbo.eu export","SymbolID":0,"AltMode":-1,"Base":0,"Snippet":"","PopupInfo":"","HasLabel":-1,"LabelID":0}},{"type":"Feature","id":77,"geometry":{"type":"Point","coordinates":[110.39275810000004,-7.783206699999937,0]},"properties":{"OBJECTID":77,"Name":"Halte TJ Solo (Gedung Wanita)","FolderPath":"overpass-turbo.eu export","SymbolID":0,"AltMode":-1,"Base":0,"Snippet":"","PopupInfo":"","HasLabel":-1,"LabelID":0}},{"type":"Feature","id":78,"geometry":{"type":"Point","coordinates":[110.41043600000006,-7.7857614999999782,0]},"properties":{"OBJECTID":78,"Name":"Halte Janti Selatan (Bawah Jembatan)","FolderPath":"overpass-turbo.eu export","SymbolID":0,"AltMode":-1,"Base":0,"Snippet":"","PopupInfo":"","HasLabel":-1,"LabelID":0}},{"type":"Feature","id":79,"geometry":{"type":"Point","coordinates":[110.41158310000009,-7.7832247999999709,0]},"properties":{"OBJECTID":79,"Name":"Halte Jl. Solo (Janti)","FolderPath":"overpass-turbo.eu export","SymbolID":0,"AltMode":-1,"Base":0,"Snippet":"","PopupInfo":"","HasLabel":-1,"LabelID":0}},{"type":"Feature","id":80,"geometry":{"type":"Point","coordinates":[110.41934480000003,-7.7834273999999368,0]},"properties":{"OBJECTID":80,"Name":"Halte Jl. Solo (Jayakarta)","FolderPath":"overpass-turbo.eu export","SymbolID":0,"AltMode":-1,"Base":0,"Snippet":"","PopupInfo":"","HasLabel":-1,"LabelID":0}},{"type":"Feature","id":81,"geometry":{"type":"Point","coordinates":[110.40175780000004,-7.7833158999999341,0]},"properties":{"OBJECTID":81,"Name":"Halte TJ Solo (Jogja Bisnis)","FolderPath":"overpass-turbo.eu export","SymbolID":0,"AltMode":-1,"Base":0,"Snippet":"","PopupInfo":"","HasLabel":-1,"LabelID":0}},{"type":"Feature","id":82,"geometry":{"type":"Point","coordinates":[110.45056420000009,-7.7817384999999604,0]},"properties":{"OBJECTID":82,"Name":"Halte Jl. Solo (KR1)","FolderPath":"overpass-turbo.eu export","SymbolID":0,"AltMode":-1,"Base":0,"Snippet":"","PopupInfo":"","HasLabel":-1,"LabelID":0}},{"type":"Feature","id":83,"geometry":{"type":"Point","coordinates":[110.44873790000008,-7.7825576999999271,0]},"properties":{"OBJECTID":83,"Name":"Halte Jl. Solo (KR2)","FolderPath":"overpass-turbo.eu export","SymbolID":0,"AltMode":-1,"Base":0,"Snippet":"","PopupInfo":"","HasLabel":-1,"LabelID":0}},{"type":"Feature","id":84,"geometry":{"type":"Point","coordinates":[110.46902290000008,-7.7696988999999803,0]},"properties":{"OBJECTID":84,"Name":"Halte Jl. Solo (Kalasan)","FolderPath":"overpass-turbo.eu export","SymbolID":0,"AltMode":-1,"Base":0,"Snippet":"","PopupInfo":"","HasLabel":-1,"LabelID":0}},{"type":"Feature","id":85,"geometry":{"type":"Point","coordinates":[110.43091010000006,-7.7833984999999757,0]},"properties":{"OBJECTID":85,"Name":"Halte Jl. Solo (Maguwo)","FolderPath":"overpass-turbo.eu export","SymbolID":0,"AltMode":-1,"Base":0,"Snippet":"","PopupInfo":"","HasLabel":-1,"LabelID":0}},{"type":"Feature","id":86,"geometry":{"type":"Point","coordinates":[110.38348690000004,-7.8018326999999772,0]},"properties":{"OBJECTID":86,"Name":"Halte Kusumanegara 2","FolderPath":"overpass-turbo.eu export","SymbolID":0,"AltMode":-1,"Base":0,"Snippet":"","PopupInfo":"","HasLabel":-1,"LabelID":0}},{"type":"Feature","id":87,"geometry":{"type":"Point","coordinates":[110.38219780000009,-7.8019147999999632,0]},"properties":{"OBJECTID":87,"Name":"TPB Kusumanegara 1","FolderPath":"overpass-turbo.eu export","SymbolID":0,"AltMode":-1,"Base":0,"Snippet":"","PopupInfo":"","HasLabel":-1,"LabelID":0}},{"type":"Feature","id":88,"geometry":{"type":"Point","coordinates":[110.37420190000006,-7.801641899999936,0]},"properties":{"OBJECTID":88,"Name":"Halte Museum Biologi","FolderPath":"overpass-turbo.eu export","SymbolID":0,"AltMode":-1,"Base":0,"Snippet":"","PopupInfo":"","HasLabel":-1,"LabelID":0}},{"type":"Feature","id":89,"geometry":{"type":"Point","coordinates":[110.37574460000008,-7.8016158999999448,0]},"properties":{"OBJECTID":89,"Name":"Halte Pakualaman","FolderPath":"overpass-turbo.eu export","SymbolID":0,"AltMode":-1,"Base":0,"Snippet":"","PopupInfo":"","HasLabel":-1,"LabelID":0}},{"type":"Feature","id":90,"geometry":{"type":"Point","coordinates":[110.41001080000007,-7.7973506999999813,0]},"properties":{"OBJECTID":90,"Name":"Halte RSPAU DR. S. Hardjolukito","FolderPath":"overpass-turbo.eu export","SymbolID":0,"AltMode":-1,"Base":0,"Snippet":"","PopupInfo":"","HasLabel":-1,"LabelID":0}},{"type":"Feature","id":91,"geometry":{"type":"Point","coordinates":[110.36955820000009,-7.7829661999999757,0]},"properties":{"OBJECTID":91,"Name":"Halte Sudirman (Bumiputra)","FolderPath":"overpass-turbo.eu export","SymbolID":0,"AltMode":-1,"Base":0,"Snippet":"","PopupInfo":"","HasLabel":-1,"LabelID":0}},{"type":"Feature","id":92,"geometry":{"type":"Point","coordinates":[110.36882290000005,-7.7827880999999479,0]},"properties":{"OBJECTID":92,"Name":"Halte Sudirman (Santika)","FolderPath":"overpass-turbo.eu export","SymbolID":0,"AltMode":-1,"Base":0,"Snippet":"","PopupInfo":"","HasLabel":-1,"LabelID":0}},{"type":"Feature","id":93,"geometry":{"type":"Point","coordinates":[110.38607750000006,-7.7831196999999293,0]},"properties":{"OBJECTID":93,"Name":"Halte TJ Urip Sumoharjo","FolderPath":"overpass-turbo.eu export","SymbolID":0,"AltMode":-1,"Base":0,"Snippet":"","PopupInfo":"","HasLabel":-1,"LabelID":0}},{"type":"Feature","id":94,"geometry":{"type":"Point","coordinates":[110.40979380000005,-7.7973274999999376,0]},"properties":{"OBJECTID":94,"Name":"TPB Blok O","FolderPath":"overpass-turbo.eu export","SymbolID":0,"AltMode":-1,"Base":0,"Snippet":"","PopupInfo":"","HasLabel":-1,"LabelID":0}},{"type":"Feature","id":95,"geometry":{"type":"Point","coordinates":[110.42820880000005,-7.7835380999999302,0]},"properties":{"OBJECTID":95,"Name":"TPB Hyundai Jl. Laksda Adisucipto","FolderPath":"overpass-turbo.eu export","SymbolID":0,"AltMode":-1,"Base":0,"Snippet":"","PopupInfo":"","HasLabel":-1,"LabelID":0}},{"type":"Feature","id":96,"geometry":{"type":"Point","coordinates":[110.41213190000008,-7.7739724999999567,0]},"properties":{"OBJECTID":96,"Name":"TPB Ruko Babarsari","FolderPath":"overpass-turbo.eu export","SymbolID":0,"AltMode":-1,"Base":0,"Snippet":"","PopupInfo":"","HasLabel":-1,"LabelID":0}},{"type":"Feature","id":97,"geometry":{"type":"Point","coordinates":[110.40855280000005,-7.7780738999999812,0]},"properties":{"OBJECTID":97,"Name":"TPB Kledokan Babarsari","FolderPath":"overpass-turbo.eu export","SymbolID":0,"AltMode":-1,"Base":0,"Snippet":"","PopupInfo":"","HasLabel":-1,"LabelID":0}},{"type":"Feature","id":98,"geometry":{"type":"Point","coordinates":[110.36207660000008,-7.7993946999999366,0]},"properties":{"OBJECTID":98,"Name":"Portabel Bhayangkara","FolderPath":"overpass-turbo.eu export","SymbolID":0,"AltMode":-1,"Base":0,"Snippet":"","PopupInfo":"","HasLabel":-1,"LabelID":0}},{"type":"Feature","id":99,"geometry":{"type":"Point","coordinates":[110.38847450000009,-7.7793888999999581,0]},"properties":{"OBJECTID":99,"Name":"TPB Pasar Demangan","FolderPath":"overpass-turbo.eu export","SymbolID":0,"AltMode":-1,"Base":0,"Snippet":"","PopupInfo":"","HasLabel":-1,"LabelID":0}},{"type":"Feature","id":100,"geometry":{"type":"Point","coordinates":[110.36255970000008,-7.7828682999999614,0]},"properties":{"OBJECTID":100,"Name":"Halte TJ Diponegoro","FolderPath":"overpass-turbo.eu export","SymbolID":0,"AltMode":-1,"Base":0,"Snippet":"","PopupInfo":"","HasLabel":-1,"LabelID":0}},{"type":"Feature","id":101,"geometry":{"type":"Point","coordinates":[110.37430690000008,-7.7678427999999258,0]},"properties":{"OBJECTID":101,"Name":"Halte FK-UGM","FolderPath":"overpass-turbo.eu export","SymbolID":0,"AltMode":-1,"Base":0,"Snippet":"","PopupInfo":"","HasLabel":-1,"LabelID":0}},{"type":"Feature","id":102,"geometry":{"type":"Point","coordinates":[110.37514020000003,-7.7742980999999531,0]},"properties":{"OBJECTID":102,"Name":"Halte TJ Kaliurang (Kopma UGM)","FolderPath":"overpass-turbo.eu export","SymbolID":0,"AltMode":-1,"Base":0,"Snippet":"","PopupInfo":"","HasLabel":-1,"LabelID":0}},{"type":"Feature","id":103,"geometry":{"type":"Point","coordinates":[110.37492740000005,-7.7744968999999742,0]},"properties":{"OBJECTID":103,"Name":"Halte TJ Kaliurang (Pertanian UGM)","FolderPath":"overpass-turbo.eu export","SymbolID":0,"AltMode":-1,"Base":0,"Snippet":"","PopupInfo":"","HasLabel":-1,"LabelID":0}},{"type":"Feature","id":104,"geometry":{"type":"Point","coordinates":[110.36010970000007,-7.7894947999999431,0]},"properties":{"OBJECTID":104,"Name":"Halte Jlagran","FolderPath":"overpass-turbo.eu export","SymbolID":0,"AltMode":-1,"Base":0,"Snippet":"","PopupInfo":"","HasLabel":-1,"LabelID":0}},{"type":"Feature","id":105,"geometry":{"type":"Point","coordinates":[110.36009510000008,-7.7895816999999283,0]},"properties":{"OBJECTID":105,"Name":"Halte Jlagran","FolderPath":"overpass-turbo.eu export","SymbolID":0,"AltMode":-1,"Base":0,"Snippet":"","PopupInfo":"","HasLabel":-1,"LabelID":0}},{"type":"Feature","id":106,"geometry":{"type":"Point","coordinates":[110.37140150000005,-7.7846704999999474,0]},"properties":{"OBJECTID":106,"Name":"Halte TJ Kotabaru","FolderPath":"overpass-turbo.eu export","SymbolID":0,"AltMode":-1,"Base":0,"Snippet":"","PopupInfo":"","HasLabel":-1,"LabelID":0}},{"type":"Feature","id":107,"geometry":{"type":"Point","coordinates":[110.37548020000008,-7.7846918999999275,0]},"properties":{"OBJECTID":107,"Name":"Halte Kotabaru","FolderPath":"overpass-turbo.eu export","SymbolID":0,"AltMode":-1,"Base":0,"Snippet":"","PopupInfo":"","HasLabel":-1,"LabelID":0}},{"type":"Feature","id":108,"geometry":{"type":"Point","coordinates":[110.35728280000006,-7.8132166999999413,0]},"properties":{"OBJECTID":108,"Name":"TPB MT Haryono (Jokteng Kulon)","FolderPath":"overpass-turbo.eu export","SymbolID":0,"AltMode":-1,"Base":0,"Snippet":"","PopupInfo":"","HasLabel":-1,"LabelID":0}},{"type":"Feature","id":109,"geometry":{"type":"Point","coordinates":[110.35811820000004,-7.8134182999999666,0]},"properties":{"OBJECTID":109,"Name":"Halte MT Haryono 2 (SMA N 7)","FolderPath":"overpass-turbo.eu export","SymbolID":0,"AltMode":-1,"Base":0,"Snippet":"","PopupInfo":"","HasLabel":-1,"LabelID":0}},{"type":"Feature","id":110,"geometry":{"type":"Point","coordinates":[110.37599600000004,-7.8168708999999694,0]},"properties":{"OBJECTID":110,"Name":"Halte PA Muhammadiyah","FolderPath":"overpass-turbo.eu export","SymbolID":0,"AltMode":-1,"Base":0,"Snippet":"","PopupInfo":"","HasLabel":-1,"LabelID":0}},{"type":"Feature","id":111,"geometry":{"type":"Point","coordinates":[110.43077500000004,-7.7744507999999541,0]},"properties":{"OBJECTID":111,"Name":"Halte Ring Road Utara (Binamarga)","FolderPath":"overpass-turbo.eu export","SymbolID":0,"AltMode":-1,"Base":0,"Snippet":"","PopupInfo":"","HasLabel":-1,"LabelID":0}},{"type":"Feature","id":112,"geometry":{"type":"Point","coordinates":[110.43105620000006,-7.7693852999999535,0]},"properties":{"OBJECTID":112,"Name":"TPB RRU PJN","FolderPath":"overpass-turbo.eu export","SymbolID":0,"AltMode":-1,"Base":0,"Snippet":"","PopupInfo":"","HasLabel":-1,"LabelID":0}},{"type":"Feature","id":113,"geometry":{"type":"Point","coordinates":[110.42347790000008,-7.7642321999999808,0]},"properties":{"OBJECTID":113,"Name":"TPB RRU Instiper 1","FolderPath":"overpass-turbo.eu export","SymbolID":0,"AltMode":-1,"Base":0,"Snippet":"","PopupInfo":"","HasLabel":-1,"LabelID":0}},{"type":"Feature","id":114,"geometry":{"type":"Point","coordinates":[110.40800840000009,-7.7606583999999543,0]},"properties":{"OBJECTID":114,"Name":"Halte RRU TJ (UPN)","FolderPath":"overpass-turbo.eu export","SymbolID":0,"AltMode":-1,"Base":0,"Snippet":"","PopupInfo":"","HasLabel":-1,"LabelID":0}},{"type":"Feature","id":115,"geometry":{"type":"Point","coordinates":[110.37989720000007,-7.824861799999951,0]},"properties":{"OBJECTID":115,"Name":"Halte Nitikan","FolderPath":"overpass-turbo.eu export","SymbolID":0,"AltMode":-1,"Base":0,"Snippet":"","PopupInfo":"","HasLabel":-1,"LabelID":0}},{"type":"Feature","id":116,"geometry":{"type":"Point","coordinates":[110.37918000000008,-7.824724999999944,0]},"properties":{"OBJECTID":116,"Name":"TPB Sorogenen (Wirosaban)","FolderPath":"overpass-turbo.eu export","SymbolID":0,"AltMode":-1,"Base":0,"Snippet":"","PopupInfo":"","HasLabel":-1,"LabelID":0}},{"type":"Feature","id":117,"geometry":{"type":"Point","coordinates":[110.39183990000004,-7.8260194999999726,0]},"properties":{"OBJECTID":117,"Name":"Halte Tegal Gendu 1","FolderPath":"overpass-turbo.eu export","SymbolID":0,"AltMode":-1,"Base":0,"Snippet":"","PopupInfo":"","HasLabel":-1,"LabelID":0}},{"type":"Feature","id":118,"geometry":{"type":"Point","coordinates":[110.39132910000006,-7.8259181999999328,0]},"properties":{"OBJECTID":118,"Name":"Halte Tegal Gendu 2","FolderPath":"overpass-turbo.eu export","SymbolID":0,"AltMode":-1,"Base":0,"Snippet":"","PopupInfo":"","HasLabel":-1,"LabelID":0}},{"type":"Feature","id":119,"geometry":{"type":"Point","coordinates":[110.38706370000006,-7.8253801999999268,0]},"properties":{"OBJECTID":119,"Name":"TPB Tegal Turi 1","FolderPath":"overpass-turbo.eu export","SymbolID":0,"AltMode":-1,"Base":0,"Snippet":"","PopupInfo":"","HasLabel":-1,"LabelID":0}},{"type":"Feature","id":120,"geometry":{"type":"Point","coordinates":[110.38680360000006,-7.8254201999999395,0]},"properties":{"OBJECTID":120,"Name":"TPB Tegal Turi 2","FolderPath":"overpass-turbo.eu export","SymbolID":0,"AltMode":-1,"Base":0,"Snippet":"","PopupInfo":"","HasLabel":-1,"LabelID":0}},{"type":"Feature","id":121,"geometry":{"type":"Point","coordinates":[110.35600770000008,-7.8079401999999618,0]},"properties":{"OBJECTID":121,"Name":"Portabel Tejokusuman (Tamansari)","FolderPath":"overpass-turbo.eu export","SymbolID":0,"AltMode":-1,"Base":0,"Snippet":"","PopupInfo":"","HasLabel":-1,"LabelID":0}},{"type":"Feature","id":122,"geometry":{"type":"Point","coordinates":[110.39184180000007,-7.8341084999999566,0]},"properties":{"OBJECTID":122,"Name":"Halte Terminal Giwangan","FolderPath":"overpass-turbo.eu export","SymbolID":0,"AltMode":-1,"Base":0,"Snippet":"","PopupInfo":"","HasLabel":-1,"LabelID":0}},{"type":"Feature","id":123,"geometry":{"type":"Point","coordinates":[110.37697670000006,-7.765357799999947,0]},"properties":{"OBJECTID":123,"Name":"TPB Fakultas Biologi UGM","FolderPath":"overpass-turbo.eu export","SymbolID":0,"AltMode":-1,"Base":0,"Snippet":"","PopupInfo":"","HasLabel":-1,"LabelID":0}},{"type":"Feature","id":124,"geometry":{"type":"Point","coordinates":[110.37520610000007,-7.7713920999999573,0]},"properties":{"OBJECTID":124,"Name":"TPB Fak. Kedokteran UGM","FolderPath":"overpass-turbo.eu export","SymbolID":0,"AltMode":-1,"Base":0,"Snippet":"","PopupInfo":"","HasLabel":-1,"LabelID":0}},{"type":"Feature","id":125,"geometry":{"type":"Point","coordinates":[110.37540160000009,-7.7714881999999648,0]},"properties":{"OBJECTID":125,"Name":"TPB Fak. Peternakan UGM","FolderPath":"overpass-turbo.eu export","SymbolID":0,"AltMode":-1,"Base":0,"Snippet":"","PopupInfo":"","HasLabel":-1,"LabelID":0}},{"type":"Feature","id":126,"geometry":{"type":"Point","coordinates":[110.38001280000009,-7.7625510999999392,0]},"properties":{"OBJECTID":126,"Name":"Halte Graha Asus Jakal","FolderPath":"overpass-turbo.eu export","SymbolID":0,"AltMode":-1,"Base":0,"Snippet":"","PopupInfo":"","HasLabel":-1,"LabelID":0}},{"type":"Feature","id":127,"geometry":{"type":"Point","coordinates":[110.38013890000008,-7.7618640999999684,0]},"properties":{"OBJECTID":127,"Name":"Halte Hotel Vidi Jakal","FolderPath":"overpass-turbo.eu export","SymbolID":0,"AltMode":-1,"Base":0,"Snippet":"","PopupInfo":"","HasLabel":-1,"LabelID":0}},{"type":"Feature","id":128,"geometry":{"type":"Point","coordinates":[110.39634740000008,-7.822354799999971,0]},"properties":{"OBJECTID":128,"Name":"TPB Lapangan Karang","FolderPath":"overpass-turbo.eu export","SymbolID":0,"AltMode":-1,"Base":0,"Snippet":"","PopupInfo":"","HasLabel":-1,"LabelID":0}},{"type":"Feature","id":129,"geometry":{"type":"Point","coordinates":[110.39642690000005,-7.8224405999999362,0]},"properties":{"OBJECTID":129,"Name":"TPB Lap. Karang Kotagede","FolderPath":"overpass-turbo.eu export","SymbolID":0,"AltMode":-1,"Base":0,"Snippet":"","PopupInfo":"","HasLabel":-1,"LabelID":0}},{"type":"Feature","id":130,"geometry":{"type":"Point","coordinates":[110.37602760000004,-7.8170423999999343,0]},"properties":{"OBJECTID":130,"Name":"TPB Lowanu","FolderPath":"overpass-turbo.eu export","SymbolID":0,"AltMode":-1,"Base":0,"Snippet":"","PopupInfo":"","HasLabel":-1,"LabelID":0}},{"type":"Feature","id":131,"geometry":{"type":"Point","coordinates":[110.37708900000007,-7.7650524999999675,0]},"properties":{"OBJECTID":131,"Name":"TPB MM EP UGM","FolderPath":"overpass-turbo.eu export","SymbolID":0,"AltMode":-1,"Base":0,"Snippet":"","PopupInfo":"","HasLabel":-1,"LabelID":0}},{"type":"Feature","id":132,"geometry":{"type":"Point","coordinates":[110.43114800000006,-7.7665114999999787,0]},"properties":{"OBJECTID":132,"Name":"TPB SMK Tajem Ringroad","FolderPath":"overpass-turbo.eu export","SymbolID":0,"AltMode":-1,"Base":0,"Snippet":"","PopupInfo":"","HasLabel":-1,"LabelID":0}},{"type":"Feature","id":133,"geometry":{"type":"Point","coordinates":[110.38312500000006,-7.7861112999999591,0]},"properties":{"OBJECTID":133,"Name":"Halte AA YKPN","FolderPath":"overpass-turbo.eu export","SymbolID":0,"AltMode":-1,"Base":0,"Snippet":"","PopupInfo":"","HasLabel":-1,"LabelID":0}},{"type":"Feature","id":134,"geometry":{"type":"Point","coordinates":[110.39315260000006,-7.7916419999999675,0]},"properties":{"OBJECTID":134,"Name":"Halte APMD 1","FolderPath":"overpass-turbo.eu export","SymbolID":0,"AltMode":-1,"Base":0,"Snippet":"","PopupInfo":"","HasLabel":-1,"LabelID":0}},{"type":"Feature","id":135,"geometry":{"type":"Point","coordinates":[110.37263750000005,-7.7957230999999751,0]},"properties":{"OBJECTID":135,"Name":"Dinas Pendidikan Kota Yogyakarta","FolderPath":"overpass-turbo.eu export","SymbolID":0,"AltMode":-1,"Base":0,"Snippet":"","PopupInfo":"","HasLabel":-1,"LabelID":0}},{"type":"Feature","id":136,"geometry":{"type":"Point","coordinates":[110.39502480000004,-7.8004140999999549,0]},"properties":{"OBJECTID":136,"Name":"Halte Trans Jogja SMKN 5","FolderPath":"overpass-turbo.eu export","SymbolID":0,"AltMode":-1,"Base":0,"Snippet":"","PopupInfo":"","HasLabel":-1,"LabelID":0}},{"type":"Feature","id":137,"geometry":{"type":"Point","coordinates":[110.39455910000004,-7.800279499999931,0]},"properties":{"OBJECTID":137,"Name":"Halte SGM","FolderPath":"overpass-turbo.eu export","SymbolID":0,"AltMode":-1,"Base":0,"Snippet":"","PopupInfo":"","HasLabel":-1,"LabelID":0}},{"type":"Feature","id":138,"geometry":{"type":"Point","coordinates":[110.37653140000003,-7.8137780999999791,0]},"properties":{"OBJECTID":138,"Name":"TPB ST SRD Visi","FolderPath":"overpass-turbo.eu export","SymbolID":0,"AltMode":-1,"Base":0,"Snippet":"","PopupInfo":"","HasLabel":-1,"LabelID":0}},{"type":"Feature","id":139,"geometry":{"type":"Point","coordinates":[110.38855120000005,-7.8205031999999619,0]},"properties":{"OBJECTID":139,"Name":"Halte TJ Universitas Ahmad Dahlan","FolderPath":"overpass-turbo.eu export","SymbolID":0,"AltMode":-1,"Base":0,"Snippet":"","PopupInfo":"","HasLabel":-1,"LabelID":0}},{"type":"Feature","id":140,"geometry":{"type":"Point","coordinates":[110.36686640000005,-7.8360617999999249,0]},"properties":{"OBJECTID":140,"Name":"Rosalia Indah","FolderPath":"overpass-turbo.eu export","SymbolID":0,"AltMode":-1,"Base":0,"Snippet":"","PopupInfo":"","HasLabel":-1,"LabelID":0}},{"type":"Feature","id":141,"geometry":{"type":"Point","coordinates":[110.38031030000008,-7.7875721999999428,0]},"properties":{"OBJECTID":141,"Name":"Placemark","FolderPath":"overpass-turbo.eu export","SymbolID":0,"AltMode":-1,"Base":0,"Snippet":"","PopupInfo":"","HasLabel":-1,"LabelID":0}},{"type":"Feature","id":142,"geometry":{"type":"Point","coordinates":[110.36871860000008,-7.7914896999999428,0]},"properties":{"OBJECTID":142,"Name":"Placemark","FolderPath":"overpass-turbo.eu export","SymbolID":0,"AltMode":-1,"Base":0,"Snippet":"","PopupInfo":"","HasLabel":-1,"LabelID":0}},{"type":"Feature","id":143,"geometry":{"type":"Point","coordinates":[110.35655290000005,-7.7473435999999651,0]},"properties":{"OBJECTID":143,"Name":"Portabel UTY Ringroad Utara 2","FolderPath":"overpass-turbo.eu export","SymbolID":0,"AltMode":-1,"Base":0,"Snippet":"","PopupInfo":"","HasLabel":-1,"LabelID":0}},{"type":"Feature","id":144,"geometry":{"type":"Point","coordinates":[110.40223800000007,-7.7999001999999678,0]},"properties":{"OBJECTID":144,"Name":"Placemark","FolderPath":"overpass-turbo.eu export","SymbolID":0,"AltMode":-1,"Base":0,"Snippet":"","PopupInfo":"","HasLabel":-1,"LabelID":0}},{"type":"Feature","id":145,"geometry":{"type":"Point","coordinates":[110.37361580000004,-7.7695183999999813,0]},"properties":{"OBJECTID":145,"Name":"Halte RSUP Dr. Sardjito","FolderPath":"overpass-turbo.eu export","SymbolID":0,"AltMode":-1,"Base":0,"Snippet":"","PopupInfo":"","HasLabel":-1,"LabelID":0}},{"type":"Feature","id":146,"geometry":{"type":"Point","coordinates":[110.33664960000004,-7.7623647999999434,0]},"properties":{"OBJECTID":146,"Name":"Portabel RS Queen Latifa","FolderPath":"overpass-turbo.eu export","SymbolID":0,"AltMode":-1,"Base":0,"Snippet":"","PopupInfo":"","HasLabel":-1,"LabelID":0}},{"type":"Feature","id":147,"geometry":{"type":"Point","coordinates":[110.34811810000008,-7.7444691999999691,0]},"properties":{"OBJECTID":147,"Name":"Halte Portabel Kronggahan 2","FolderPath":"overpass-turbo.eu export","SymbolID":0,"AltMode":-1,"Base":0,"Snippet":"","PopupInfo":"","HasLabel":-1,"LabelID":0}},{"type":"Feature","id":148,"geometry":{"type":"Point","coordinates":[110.34806170000007,-7.7446612999999616,0]},"properties":{"OBJECTID":148,"Name":"Halte Portable Simpang Kronggahan 1","FolderPath":"overpass-turbo.eu export","SymbolID":0,"AltMode":-1,"Base":0,"Snippet":"","PopupInfo":"","HasLabel":-1,"LabelID":0}},{"type":"Feature","id":149,"geometry":{"type":"Point","coordinates":[110.35665640000008,-7.7471546999999532,0]},"properties":{"OBJECTID":149,"Name":"Portabel UTY Ring Road Utara 1","FolderPath":"overpass-turbo.eu export","SymbolID":0,"AltMode":-1,"Base":0,"Snippet":"","PopupInfo":"","HasLabel":-1,"LabelID":0}},{"type":"Feature","id":150,"geometry":{"type":"Point","coordinates":[110.34058030000006,-7.7497866999999587,0]},"properties":{"OBJECTID":150,"Name":"Halte Portabel Westlake 1","FolderPath":"overpass-turbo.eu export","SymbolID":0,"AltMode":-1,"Base":0,"Snippet":"","PopupInfo":"","HasLabel":-1,"LabelID":0}},{"type":"Feature","id":151,"geometry":{"type":"Point","coordinates":[110.34116540000008,-7.7492763999999283,0]},"properties":{"OBJECTID":151,"Name":"Halte Portabel Westlake 2","FolderPath":"overpass-turbo.eu export","SymbolID":0,"AltMode":-1,"Base":0,"Snippet":"","PopupInfo":"","HasLabel":-1,"LabelID":0}},{"type":"Feature","id":152,"geometry":{"type":"Point","coordinates":[110.34970590000006,-7.7810290999999552,0]},"properties":{"OBJECTID":152,"Name":"Halte Portabel Soragan 1","FolderPath":"overpass-turbo.eu export","SymbolID":0,"AltMode":-1,"Base":0,"Snippet":"","PopupInfo":"","HasLabel":-1,"LabelID":0}},{"type":"Feature","id":153,"geometry":{"type":"Point","coordinates":[110.34377770000009,-7.7798042999999666,0]},"properties":{"OBJECTID":153,"Name":"Halte Portabel Dentes (Ruko Godean)","FolderPath":"overpass-turbo.eu export","SymbolID":0,"AltMode":-1,"Base":0,"Snippet":"","PopupInfo":"","HasLabel":-1,"LabelID":0}},{"type":"Feature","id":154,"geometry":{"type":"Point","coordinates":[110.34206310000008,-7.7793653999999606,0]},"properties":{"OBJECTID":154,"Name":"Halte Portabel Giant Jl. Godean","FolderPath":"overpass-turbo.eu export","SymbolID":0,"AltMode":-1,"Base":0,"Snippet":"","PopupInfo":"","HasLabel":-1,"LabelID":0}},{"type":"Feature","id":155,"geometry":{"type":"Point","coordinates":[110.36787320000008,-7.8232719999999745,0]},"properties":{"OBJECTID":155,"Name":"TPB Jogokaryan Kimia Farma 2","FolderPath":"overpass-turbo.eu export","SymbolID":0,"AltMode":-1,"Base":0,"Snippet":"","PopupInfo":"","HasLabel":-1,"LabelID":0}},{"type":"Feature","id":156,"geometry":{"type":"Point","coordinates":[110.36773700000003,-7.8233695999999782,0]},"properties":{"OBJECTID":156,"Name":"TPB Jogokaryan Kimia Farma 11","FolderPath":"overpass-turbo.eu export","SymbolID":0,"AltMode":-1,"Base":0,"Snippet":"","PopupInfo":"","HasLabel":-1,"LabelID":0}},{"type":"Feature","id":157,"geometry":{"type":"Point","coordinates":[110.35457470000006,-7.8257033999999521,0]},"properties":{"OBJECTID":157,"Name":"Portabel pasty 2","FolderPath":"overpass-turbo.eu export","SymbolID":0,"AltMode":-1,"Base":0,"Snippet":"","PopupInfo":"","HasLabel":-1,"LabelID":0}},{"type":"Feature","id":158,"geometry":{"type":"Point","coordinates":[110.35444870000003,-7.8256833999999458,0]},"properties":{"OBJECTID":158,"Name":"TPB Pasty","FolderPath":"overpass-turbo.eu export","SymbolID":0,"AltMode":-1,"Base":0,"Snippet":"","PopupInfo":"","HasLabel":-1,"LabelID":0}},{"type":"Feature","id":159,"geometry":{"type":"Point","coordinates":[110.35574220000007,-7.8192807999999445,0]},"properties":{"OBJECTID":159,"Name":"Halte portable dukuh 1","FolderPath":"overpass-turbo.eu export","SymbolID":0,"AltMode":-1,"Base":0,"Snippet":"","PopupInfo":"","HasLabel":-1,"LabelID":0}},{"type":"Feature","id":160,"geometry":{"type":"Point","coordinates":[110.33196440000006,-7.775835499999971,0]},"properties":{"OBJECTID":160,"Name":"Halte Portabel Total Security (SP Demak Ijo)","FolderPath":"overpass-turbo.eu export","SymbolID":0,"AltMode":-1,"Base":0,"Snippet":"","PopupInfo":"","HasLabel":-1,"LabelID":0}},{"type":"Feature","id":161,"geometry":{"type":"Point","coordinates":[110.35037600000004,-7.7812527999999475,0]},"properties":{"OBJECTID":161,"Name":"Halte Portabel Soragan 2","FolderPath":"overpass-turbo.eu export","SymbolID":0,"AltMode":-1,"Base":0,"Snippet":"","PopupInfo":"","HasLabel":-1,"LabelID":0}},{"type":"Feature","id":162,"geometry":{"type":"Point","coordinates":[110.36158070000005,-7.7920766999999387,0]},"properties":{"OBJECTID":162,"Name":"Portabel Jl Gandekan","FolderPath":"overpass-turbo.eu export","SymbolID":0,"AltMode":-1,"Base":0,"Snippet":"","PopupInfo":"","HasLabel":-1,"LabelID":0}},{"type":"Feature","id":163,"geometry":{"type":"Point","coordinates":[110.36181270000009,-7.7960176999999362,0]},"properties":{"OBJECTID":163,"Name":"Portabel Pasar Pathuk Yogyakarta","FolderPath":"overpass-turbo.eu export","SymbolID":0,"AltMode":-1,"Base":0,"Snippet":"","PopupInfo":"","HasLabel":-1,"LabelID":0}},{"type":"Feature","id":164,"geometry":{"type":"Point","coordinates":[110.36426360000007,-7.8142784999999435,0]},"properties":{"OBJECTID":164,"Name":"Portable Jl. Mayjen Sutoyo (Pasar Gading)","FolderPath":"overpass-turbo.eu export","SymbolID":0,"AltMode":-1,"Base":0,"Snippet":"","PopupInfo":"","HasLabel":-1,"LabelID":0}},{"type":"Feature","id":165,"geometry":{"type":"Point","coordinates":[110.36710100000005,-7.8146935999999414,0]},"properties":{"OBJECTID":165,"Name":"Portabel Jl. Mayjen Sutoyo (Jokteng Wetan)","FolderPath":"overpass-turbo.eu export","SymbolID":0,"AltMode":-1,"Base":0,"Snippet":"","PopupInfo":"","HasLabel":-1,"LabelID":0}},{"type":"Feature","id":166,"geometry":{"type":"Point","coordinates":[110.35565570000006,-7.8192195999999399,0]},"properties":{"OBJECTID":166,"Name":"Halte portable dukuh 2","FolderPath":"overpass-turbo.eu export","SymbolID":0,"AltMode":-1,"Base":0,"Snippet":"","PopupInfo":"","HasLabel":-1,"LabelID":0}},{"type":"Feature","id":167,"geometry":{"type":"Point","coordinates":[110.36210100000005,-7.7530104999999594,0]},"properties":{"OBJECTID":167,"Name":"TPB Suzuki","FolderPath":"overpass-turbo.eu export","SymbolID":0,"AltMode":-1,"Base":0,"Snippet":"","PopupInfo":"","HasLabel":-1,"LabelID":0}},{"type":"Feature","id":168,"geometry":{"type":"Point","coordinates":[110.36230760000007,-7.7539127999999664,0]},"properties":{"OBJECTID":168,"Name":"halte portable JCM 2","FolderPath":"overpass-turbo.eu export","SymbolID":0,"AltMode":-1,"Base":0,"Snippet":"","PopupInfo":"","HasLabel":-1,"LabelID":0}},{"type":"Feature","id":169,"geometry":{"type":"Point","coordinates":[110.36151780000006,-7.7653729999999541,0]},"properties":{"OBJECTID":169,"Name":"TPB Grand Pacific Restoran","FolderPath":"overpass-turbo.eu export","SymbolID":0,"AltMode":-1,"Base":0,"Snippet":"","PopupInfo":"","HasLabel":-1,"LabelID":0}},{"type":"Feature","id":170,"geometry":{"type":"Point","coordinates":[110.36169240000004,-7.7652677999999469,0]},"properties":{"OBJECTID":170,"Name":"TPB TVRI","FolderPath":"overpass-turbo.eu export","SymbolID":0,"AltMode":-1,"Base":0,"Snippet":"","PopupInfo":"","HasLabel":-1,"LabelID":0}},{"type":"Feature","id":171,"geometry":{"type":"Point","coordinates":[110.36114820000006,-7.7737141999999722,0]},"properties":{"OBJECTID":171,"Name":"halte portable kricak","FolderPath":"overpass-turbo.eu export","SymbolID":0,"AltMode":-1,"Base":0,"Snippet":"","PopupInfo":"","HasLabel":-1,"LabelID":0}},{"type":"Feature","id":172,"geometry":{"type":"Point","coordinates":[110.36132990000004,-7.7737146999999709,0]},"properties":{"OBJECTID":172,"Name":"halte portable karangwaru","FolderPath":"overpass-turbo.eu export","SymbolID":0,"AltMode":-1,"Base":0,"Snippet":"","PopupInfo":"","HasLabel":-1,"LabelID":0}},{"type":"Feature","id":173,"geometry":{"type":"Point","coordinates":[110.36396110000004,-7.8141315999999392,0]},"properties":{"OBJECTID":173,"Name":"TPB Jl. Mayjen Sutoyo (Plengkung Gading)","FolderPath":"overpass-turbo.eu export","SymbolID":0,"AltMode":-1,"Base":0,"Snippet":"","PopupInfo":"","HasLabel":-1,"LabelID":0}},{"type":"Feature","id":174,"geometry":{"type":"Point","coordinates":[110.38195780000007,-7.757855999999947,0]},"properties":{"OBJECTID":174,"Name":"Putra Kampus Jalan Kaliurang","FolderPath":"overpass-turbo.eu export","SymbolID":0,"AltMode":-1,"Base":0,"Snippet":"","PopupInfo":"","HasLabel":-1,"LabelID":0}},{"type":"Feature","id":175,"geometry":{"type":"Point","coordinates":[110.40896830000008,-7.7607218999999645,0]},"properties":{"OBJECTID":175,"Name":"Halte TJ RRU (STIKES Guna Bangsa)","FolderPath":"overpass-turbo.eu export","SymbolID":0,"AltMode":-1,"Base":0,"Snippet":"","PopupInfo":"","HasLabel":-1,"LabelID":0}},{"type":"Feature","id":176,"geometry":{"type":"Point","coordinates":[110.37333280000007,-7.8243579999999611,0]},"properties":{"OBJECTID":176,"Name":"TPB Pasar Telo 1","FolderPath":"overpass-turbo.eu export","SymbolID":0,"AltMode":-1,"Base":0,"Snippet":"","PopupInfo":"","HasLabel":-1,"LabelID":0}},{"type":"Feature","id":177,"geometry":{"type":"Point","coordinates":[110.39951050000008,-7.75826799999993,0]},"properties":{"OBJECTID":177,"Name":"TPB RRU Hartono Mall","FolderPath":"overpass-turbo.eu export","SymbolID":0,"AltMode":-1,"Base":0,"Snippet":"","PopupInfo":"","HasLabel":-1,"LabelID":0}},{"type":"Feature","id":178,"geometry":{"type":"Point","coordinates":[110.37358290000009,-7.7905107999999359,0]},"properties":{"OBJECTID":178,"Name":"TPB Lempuyangan 2","FolderPath":"overpass-turbo.eu export","SymbolID":0,"AltMode":-1,"Base":0,"Snippet":"","PopupInfo":"","HasLabel":-1,"LabelID":0}},{"type":"Feature","id":179,"geometry":{"type":"Point","coordinates":[110.37364860000008,-7.7903808999999455,0]},"properties":{"OBJECTID":179,"Name":"TPB Lempuyangan 1","FolderPath":"overpass-turbo.eu export","SymbolID":0,"AltMode":-1,"Base":0,"Snippet":"","PopupInfo":"","HasLabel":-1,"LabelID":0}},{"type":"Feature","id":180,"geometry":{"type":"Point","coordinates":[110.35886830000004,-7.7894929999999363,0]},"properties":{"OBJECTID":180,"Name":"Portabel Jl. Jlagran Lor","FolderPath":"overpass-turbo.eu export","SymbolID":0,"AltMode":-1,"Base":0,"Snippet":"","PopupInfo":"","HasLabel":-1,"LabelID":0}},{"type":"Feature","id":181,"geometry":{"type":"Point","coordinates":[110.43611060000006,-7.7845488999999475,0]},"properties":{"OBJECTID":181,"Name":"Halte TJ Bandara Adisucipto","FolderPath":"overpass-turbo.eu export","SymbolID":0,"AltMode":-1,"Base":0,"Snippet":"","PopupInfo":"","HasLabel":-1,"LabelID":0}},{"type":"Feature","id":182,"geometry":{"type":"Point","coordinates":[110.37473690000007,-7.7640769999999293,0]},"properties":{"OBJECTID":182,"Name":"TPB Teknik UGM 1","FolderPath":"overpass-turbo.eu export","SymbolID":0,"AltMode":-1,"Base":0,"Snippet":"","PopupInfo":"","HasLabel":-1,"LabelID":0}},{"type":"Feature","id":183,"geometry":{"type":"Point","coordinates":[110.39868760000007,-7.7579349999999749,0]},"properties":{"OBJECTID":183,"Name":"TPB RRU BTN","FolderPath":"overpass-turbo.eu export","SymbolID":0,"AltMode":-1,"Base":0,"Snippet":"","PopupInfo":"","HasLabel":-1,"LabelID":0}},{"type":"Feature","id":184,"geometry":{"type":"Point","coordinates":[110.40312060000008,-7.7588154999999688,0]},"properties":{"OBJECTID":184,"Name":"TJ RRU (JIH)","FolderPath":"overpass-turbo.eu export","SymbolID":0,"AltMode":-1,"Base":0,"Snippet":"","PopupInfo":"","HasLabel":-1,"LabelID":0}},{"type":"Feature","id":185,"geometry":{"type":"Point","coordinates":[110.39094470000003,-7.7922530999999253,0]},"properties":{"OBJECTID":185,"Name":"Mako Lanal Yogyakarta","FolderPath":"overpass-turbo.eu export","SymbolID":0,"AltMode":-1,"Base":0,"Snippet":"","PopupInfo":"","HasLabel":-1,"LabelID":0}},{"type":"Feature","id":186,"geometry":{"type":"Point","coordinates":[110.39231370000005,-7.7926061999999661,0]},"properties":{"OBJECTID":186,"Name":"TPB TNI AL 1","FolderPath":"overpass-turbo.eu export","SymbolID":0,"AltMode":-1,"Base":0,"Snippet":"","PopupInfo":"","HasLabel":-1,"LabelID":0}},{"type":"Feature","id":187,"geometry":{"type":"Point","coordinates":[110.39335250000005,-7.7911687999999799,0]},"properties":{"OBJECTID":187,"Name":"Halte APMD 2","FolderPath":"overpass-turbo.eu export","SymbolID":0,"AltMode":-1,"Base":0,"Snippet":"","PopupInfo":"","HasLabel":-1,"LabelID":0}},{"type":"Feature","id":188,"geometry":{"type":"Point","coordinates":[110.39484920000007,-7.7860921999999277,0]},"properties":{"OBJECTID":188,"Name":"Halte UIN Sunan Kalijaga 2","FolderPath":"overpass-turbo.eu export","SymbolID":0,"AltMode":-1,"Base":0,"Snippet":"","PopupInfo":"","HasLabel":-1,"LabelID":0}},{"type":"Feature","id":189,"geometry":{"type":"Point","coordinates":[110.39473980000008,-7.7859372999999437,0]},"properties":{"OBJECTID":189,"Name":"Halte UIN Sunan Kalijaga 1","FolderPath":"overpass-turbo.eu export","SymbolID":0,"AltMode":-1,"Base":0,"Snippet":"","PopupInfo":"","HasLabel":-1,"LabelID":0}},{"type":"Feature","id":190,"geometry":{"type":"Point","coordinates":[110.37587640000004,-7.7778926999999385,0]},"properties":{"OBJECTID":190,"Name":"TPB SMPN 1 Yogyakarta","FolderPath":"overpass-turbo.eu export","SymbolID":0,"AltMode":-1,"Base":0,"Snippet":"","PopupInfo":"","HasLabel":-1,"LabelID":0}},{"type":"Feature","id":191,"geometry":{"type":"Point","coordinates":[110.37574460000008,-7.7775518999999349,0]},"properties":{"OBJECTID":191,"Name":"TPB Panti Rapih","FolderPath":"overpass-turbo.eu export","SymbolID":0,"AltMode":-1,"Base":0,"Snippet":"","PopupInfo":"","HasLabel":-1,"LabelID":0}},{"type":"Feature","id":192,"geometry":{"type":"Point","coordinates":[110.43388370000008,-7.7833681999999271,0]},"properties":{"OBJECTID":192,"Name":"Halte Jl. Solo Maguwo","FolderPath":"overpass-turbo.eu export","SymbolID":0,"AltMode":-1,"Base":0,"Snippet":"","PopupInfo":"","HasLabel":-1,"LabelID":0}},{"type":"Feature","id":193,"geometry":{"type":"Point","coordinates":[110.44126380000006,-7.7834186999999702,0]},"properties":{"OBJECTID":193,"Name":"TPB Makam Sorogenen","FolderPath":"overpass-turbo.eu export","SymbolID":0,"AltMode":-1,"Base":0,"Snippet":"","PopupInfo":"","HasLabel":-1,"LabelID":0}},{"type":"Feature","id":194,"geometry":{"type":"Point","coordinates":[110.47170280000006,-7.7666800999999737,0]},"properties":{"OBJECTID":194,"Name":"TPB RS. Bhayangkara","FolderPath":"overpass-turbo.eu export","SymbolID":0,"AltMode":-1,"Base":0,"Snippet":"","PopupInfo":"","HasLabel":-1,"LabelID":0}},{"type":"Feature","id":195,"geometry":{"type":"Point","coordinates":[110.38553060000004,-7.7703806999999756,0]},"properties":{"OBJECTID":195,"Name":"TPB Polsek Bulaksumur 1","FolderPath":"overpass-turbo.eu export","SymbolID":0,"AltMode":-1,"Base":0,"Snippet":"","PopupInfo":"","HasLabel":-1,"LabelID":0}},{"type":"Feature","id":196,"geometry":{"type":"Point","coordinates":[110.38637500000004,-7.770774099999926,0]},"properties":{"OBJECTID":196,"Name":"TPB Polsek Bulaksumur 2","FolderPath":"overpass-turbo.eu export","SymbolID":0,"AltMode":-1,"Base":0,"Snippet":"","PopupInfo":"","HasLabel":-1,"LabelID":0}},{"type":"Feature","id":197,"geometry":{"type":"Point","coordinates":[110.39165540000005,-7.7670469999999341,0]},"properties":{"OBJECTID":197,"Name":"Halte Grand Tjokro","FolderPath":"overpass-turbo.eu export","SymbolID":0,"AltMode":-1,"Base":0,"Snippet":"","PopupInfo":"","HasLabel":-1,"LabelID":0}},{"type":"Feature","id":198,"geometry":{"type":"Point","coordinates":[110.39506900000003,-7.7599657999999749,0]},"properties":{"OBJECTID":198,"Name":"Halte Super Dazzle","FolderPath":"overpass-turbo.eu export","SymbolID":0,"AltMode":-1,"Base":0,"Snippet":"","PopupInfo":"","HasLabel":-1,"LabelID":0}},{"type":"Feature","id":199,"geometry":{"type":"Point","coordinates":[110.39486970000007,-7.7599373999999557,0]},"properties":{"OBJECTID":199,"Name":"Halte SPBU Gejayan","FolderPath":"overpass-turbo.eu export","SymbolID":0,"AltMode":-1,"Base":0,"Snippet":"","PopupInfo":"","HasLabel":-1,"LabelID":0}},{"type":"Feature","id":200,"geometry":{"type":"Point","coordinates":[110.41514170000005,-7.7780843999999547,0]},"properties":{"OBJECTID":200,"Name":"TPB Dishub DIY","FolderPath":"overpass-turbo.eu export","SymbolID":0,"AltMode":-1,"Base":0,"Snippet":"","PopupInfo":"","HasLabel":-1,"LabelID":0}},{"type":"Feature","id":201,"geometry":{"type":"Point","coordinates":[110.31043100000005,-7.7719474999999534,0]},"properties":{"OBJECTID":201,"Name":"Neutron Yogyakarta Godean","FolderPath":"overpass-turbo.eu export","SymbolID":0,"AltMode":-1,"Base":0,"Snippet":"","PopupInfo":"","HasLabel":-1,"LabelID":0}},{"type":"Feature","id":202,"geometry":{"type":"Point","coordinates":[110.30024660000004,-7.7692991999999776,0]},"properties":{"OBJECTID":202,"Name":"Kantor Kecamatan Godean (Halte 2)","FolderPath":"overpass-turbo.eu export","SymbolID":0,"AltMode":-1,"Base":0,"Snippet":"","PopupInfo":"","HasLabel":-1,"LabelID":0}},{"type":"Feature","id":203,"geometry":{"type":"Point","coordinates":[110.38928940000005,-7.7750985999999784,0]},"properties":{"OBJECTID":203,"Name":"Halte Sanata Dharma Gejayan (Realino)","FolderPath":"overpass-turbo.eu export","SymbolID":0,"AltMode":-1,"Base":0,"Snippet":"","PopupInfo":"","HasLabel":-1,"LabelID":0}},{"type":"Feature","id":204,"geometry":{"type":"Point","coordinates":[110.31842030000007,-7.9052709999999706,0]},"properties":{"OBJECTID":204,"Name":"Terminal Palbapang (B)","FolderPath":"overpass-turbo.eu export","SymbolID":0,"AltMode":-1,"Base":0,"Snippet":"","PopupInfo":"","HasLabel":-1,"LabelID":0}},{"type":"Feature","id":205,"geometry":{"type":"Point","coordinates":[110.38144680000005,-7.7723028999999428,0]},"properties":{"OBJECTID":205,"Name":"TPB Lembah UGM 1","FolderPath":"overpass-turbo.eu export","SymbolID":0,"AltMode":-1,"Base":0,"Snippet":"","PopupInfo":"","HasLabel":-1,"LabelID":0}},{"type":"Feature","id":206,"geometry":{"type":"Point","coordinates":[110.38226000000009,-7.7724930999999629,0]},"properties":{"OBJECTID":206,"Name":"TPB Lembah UGM 2","FolderPath":"overpass-turbo.eu export","SymbolID":0,"AltMode":-1,"Base":0,"Snippet":"","PopupInfo":"","HasLabel":-1,"LabelID":0}},{"type":"Feature","id":207,"geometry":{"type":"Point","coordinates":[110.43077440000008,-7.77446649999996,0]},"properties":{"OBJECTID":207,"Name":"Halte TJ RRU (Binamarga)","FolderPath":"overpass-turbo.eu export","SymbolID":0,"AltMode":-1,"Base":0,"Snippet":"","PopupInfo":"","HasLabel":-1,"LabelID":0}},{"type":"Feature","id":208,"geometry":{"type":"Point","coordinates":[110.41211930000009,-7.7738752999999292,0]},"properties":{"OBJECTID":208,"Name":"TPB SMP N 4 Depok","FolderPath":"overpass-turbo.eu export","SymbolID":0,"AltMode":-1,"Base":0,"Snippet":"","PopupInfo":"","HasLabel":-1,"LabelID":0}},{"type":"Feature","id":209,"geometry":{"type":"Point","coordinates":[110.41509830000007,-7.7780702999999676,0]},"properties":{"OBJECTID":209,"Name":"TPB Dishub DIY","FolderPath":"overpass-turbo.eu export","SymbolID":0,"AltMode":-1,"Base":0,"Snippet":"","PopupInfo":"","HasLabel":-1,"LabelID":0}},{"type":"Feature","id":210,"geometry":{"type":"Point","coordinates":[110.41465920000007,-7.7795514999999682,0]},"properties":{"OBJECTID":210,"Name":"Halte Mall Sahid J-Walk","FolderPath":"overpass-turbo.eu export","SymbolID":0,"AltMode":-1,"Base":0,"Snippet":"","PopupInfo":"","HasLabel":-1,"LabelID":0}},{"type":"Feature","id":211,"geometry":{"type":"Point","coordinates":[110.41031450000008,-7.7671118999999749,0]},"properties":{"OBJECTID":211,"Name":"TPB Neutron Seturan (YKPN)","FolderPath":"overpass-turbo.eu export","SymbolID":0,"AltMode":-1,"Base":0,"Snippet":"","PopupInfo":"","HasLabel":-1,"LabelID":0}},{"type":"Feature","id":212,"geometry":{"type":"Point","coordinates":[110.41017560000006,-7.7683158999999478,0]},"properties":{"OBJECTID":212,"Name":"TPB AA YKPN 1","FolderPath":"overpass-turbo.eu export","SymbolID":0,"AltMode":-1,"Base":0,"Snippet":"","PopupInfo":"","HasLabel":-1,"LabelID":0}},{"type":"Feature","id":213,"geometry":{"type":"Point","coordinates":[110.36988950000006,-7.7559312999999293,0]},"properties":{"OBJECTID":213,"Name":"TPB PDAM Monjali","FolderPath":"overpass-turbo.eu export","SymbolID":0,"AltMode":-1,"Base":0,"Snippet":"","PopupInfo":"","HasLabel":-1,"LabelID":0}},{"type":"Feature","id":214,"geometry":{"type":"Point","coordinates":[110.35750370000005,-7.7908781999999519,0]},"properties":{"OBJECTID":214,"Name":"TPB Jl. Letjen Suprapto 2","FolderPath":"overpass-turbo.eu export","SymbolID":0,"AltMode":-1,"Base":0,"Snippet":"","PopupInfo":"","HasLabel":-1,"LabelID":0}},{"type":"Feature","id":215,"geometry":{"type":"Point","coordinates":[110.32128180000007,-7.9043783999999278,0]},"properties":{"OBJECTID":215,"Name":"Halte Palbapang","FolderPath":"overpass-turbo.eu export","SymbolID":0,"AltMode":-1,"Base":0,"Snippet":"","PopupInfo":"","HasLabel":-1,"LabelID":0}},{"type":"Feature","id":216,"geometry":{"type":"Point","coordinates":[110.36756270000006,-7.7918222999999784,0]},"properties":{"OBJECTID":216,"Name":"Portabel Teras Malioboro","FolderPath":"overpass-turbo.eu export","SymbolID":0,"AltMode":-1,"Base":0,"Snippet":"","PopupInfo":"","HasLabel":-1,"LabelID":0}},{"type":"Feature","id":217,"geometry":{"type":"Point","coordinates":[110.32301860000007,-7.8973632999999381,0]},"properties":{"OBJECTID":217,"Name":"Halte SMA N 1 Bantul","FolderPath":"overpass-turbo.eu export","SymbolID":0,"AltMode":-1,"Base":0,"Snippet":"","PopupInfo":"","HasLabel":-1,"LabelID":0}},{"type":"Feature","id":218,"geometry":{"type":"Point","coordinates":[110.46965860000006,-7.7694419999999695,0]},"properties":{"OBJECTID":218,"Name":"Halte Pasar Kalasan","FolderPath":"overpass-turbo.eu export","SymbolID":0,"AltMode":-1,"Base":0,"Snippet":"","PopupInfo":"","HasLabel":-1,"LabelID":0}},{"type":"Feature","id":219,"geometry":{"type":"Point","coordinates":[110.36928130000007,-7.7992530999999303,0]},"properties":{"OBJECTID":219,"Name":"TPB Jl. Mayor Suryotomo 1","FolderPath":"overpass-turbo.eu export","SymbolID":0,"AltMode":-1,"Base":0,"Snippet":"","PopupInfo":"","HasLabel":-1,"LabelID":0}},{"type":"Feature","id":220,"geometry":{"type":"Point","coordinates":[110.36868320000008,-7.8137236999999686,0]},"properties":{"OBJECTID":220,"Name":"BPR Walet Jaya Abadi","FolderPath":"overpass-turbo.eu export","SymbolID":0,"AltMode":-1,"Base":0,"Snippet":"","PopupInfo":"","HasLabel":-1,"LabelID":0}},{"type":"Feature","id":221,"geometry":{"type":"Point","coordinates":[110.36891920000005,-7.8119352999999592,0]},"properties":{"OBJECTID":221,"Name":"SDN Kintelan 1","FolderPath":"overpass-turbo.eu export","SymbolID":0,"AltMode":-1,"Base":0,"Snippet":"","PopupInfo":"","HasLabel":-1,"LabelID":0}},{"type":"Feature","id":222,"geometry":{"type":"Point","coordinates":[110.36933900000008,-7.805962299999976,0]},"properties":{"OBJECTID":222,"Name":"Jogjatronik","FolderPath":"overpass-turbo.eu export","SymbolID":0,"AltMode":-1,"Base":0,"Snippet":"","PopupInfo":"","HasLabel":-1,"LabelID":0}},{"type":"Feature","id":223,"geometry":{"type":"Point","coordinates":[110.36946370000004,-7.8042608999999743,0]},"properties":{"OBJECTID":223,"Name":"Pojok Benteng Timur Laut (Tanjung Anom)","FolderPath":"overpass-turbo.eu export","SymbolID":0,"AltMode":-1,"Base":0,"Snippet":"","PopupInfo":"","HasLabel":-1,"LabelID":0}},{"type":"Feature","id":224,"geometry":{"type":"Point","coordinates":[110.37281180000008,-7.7945693999999435,0]},"properties":{"OBJECTID":224,"Name":"TPB Hayam Wuruk 2","FolderPath":"overpass-turbo.eu export","SymbolID":0,"AltMode":-1,"Base":0,"Snippet":"","PopupInfo":"","HasLabel":-1,"LabelID":0}},{"type":"Feature","id":225,"geometry":{"type":"Point","coordinates":[110.38793540000006,-7.8074410999999486,0]},"properties":{"OBJECTID":225,"Name":"TPB Jl. Glagahsari","FolderPath":"overpass-turbo.eu export","SymbolID":0,"AltMode":-1,"Base":0,"Snippet":"","PopupInfo":"","HasLabel":-1,"LabelID":0}},{"type":"Feature","id":226,"geometry":{"type":"Point","coordinates":[110.37825600000008,-7.8042382999999518,0]},"properties":{"OBJECTID":226,"Name":"TPB Wirogunan Tamsis 2","FolderPath":"overpass-turbo.eu export","SymbolID":0,"AltMode":-1,"Base":0,"Snippet":"","PopupInfo":"","HasLabel":-1,"LabelID":0}},{"type":"Feature","id":227,"geometry":{"type":"Point","coordinates":[110.38873000000007,-7.8042595999999662,0]},"properties":{"OBJECTID":227,"Name":"TPB Olive Kentucky","FolderPath":"overpass-turbo.eu export","SymbolID":0,"AltMode":-1,"Base":0,"Snippet":"","PopupInfo":"","HasLabel":-1,"LabelID":0}},{"type":"Feature","id":228,"geometry":{"type":"Point","coordinates":[110.38842690000007,-7.8055550999999355,0]},"properties":{"OBJECTID":228,"Name":"TPB UTY Glagahsari","FolderPath":"overpass-turbo.eu export","SymbolID":0,"AltMode":-1,"Base":0,"Snippet":"","PopupInfo":"","HasLabel":-1,"LabelID":0}},{"type":"Feature","id":229,"geometry":{"type":"Point","coordinates":[110.31675430000007,-7.8018825999999422,0]},"properties":{"OBJECTID":229,"Name":"TPB RSU PKU Muhammadiyah Gamping","FolderPath":"overpass-turbo.eu export","SymbolID":0,"AltMode":-1,"Base":0,"Snippet":"","PopupInfo":"","HasLabel":-1,"LabelID":0}},{"type":"Feature","id":230,"geometry":{"type":"Point","coordinates":[110.31480030000006,-7.8024724999999648,0]},"properties":{"OBJECTID":230,"Name":"Halte Gamping (Ambarketawang)","FolderPath":"overpass-turbo.eu export","SymbolID":0,"AltMode":-1,"Base":0,"Snippet":"","PopupInfo":"","HasLabel":-1,"LabelID":0}},{"type":"Feature","id":231,"geometry":{"type":"Point","coordinates":[110.33711900000009,-7.800277499999936,0]},"properties":{"OBJECTID":231,"Name":"TPB Ruko Bayeman 2","FolderPath":"overpass-turbo.eu export","SymbolID":0,"AltMode":-1,"Base":0,"Snippet":"","PopupInfo":"","HasLabel":-1,"LabelID":0}},{"type":"Feature","id":232,"geometry":{"type":"Point","coordinates":[110.33695130000007,-7.8004143999999656,0]},"properties":{"OBJECTID":232,"Name":"TPB Ruko Bayeman 1","FolderPath":"overpass-turbo.eu export","SymbolID":0,"AltMode":-1,"Base":0,"Snippet":"","PopupInfo":"","HasLabel":-1,"LabelID":0}},{"type":"Feature","id":233,"geometry":{"type":"Point","coordinates":[110.33073930000006,-7.800015799999926,0]},"properties":{"OBJECTID":233,"Name":"TPB Pelem Gurih","FolderPath":"overpass-turbo.eu export","SymbolID":0,"AltMode":-1,"Base":0,"Snippet":"","PopupInfo":"","HasLabel":-1,"LabelID":0}},{"type":"Feature","id":234,"geometry":{"type":"Point","coordinates":[110.35421740000004,-7.8010932999999341,0]},"properties":{"OBJECTID":234,"Name":"TPB Pasar Serangan","FolderPath":"overpass-turbo.eu export","SymbolID":0,"AltMode":-1,"Base":0,"Snippet":"","PopupInfo":"","HasLabel":-1,"LabelID":0}},{"type":"Feature","id":235,"geometry":{"type":"Point","coordinates":[110.32505570000006,-7.8027156999999647,0]},"properties":{"OBJECTID":235,"Name":"TPB AMIK BSI","FolderPath":"overpass-turbo.eu export","SymbolID":0,"AltMode":-1,"Base":0,"Snippet":"","PopupInfo":"","HasLabel":-1,"LabelID":0}},{"type":"Feature","id":236,"geometry":{"type":"Point","coordinates":[110.32434900000004,-7.8160614999999325,0]},"properties":{"OBJECTID":236,"Name":"TPB BRI UMY","FolderPath":"overpass-turbo.eu export","SymbolID":0,"AltMode":-1,"Base":0,"Snippet":"","PopupInfo":"","HasLabel":-1,"LabelID":0}},{"type":"Feature","id":237,"geometry":{"type":"Point","coordinates":[110.32422360000004,-7.8145082999999431,0]},"properties":{"OBJECTID":237,"Name":"TPB Apotek Muji Sehat","FolderPath":"overpass-turbo.eu export","SymbolID":0,"AltMode":-1,"Base":0,"Snippet":"","PopupInfo":"","HasLabel":-1,"LabelID":0}},{"type":"Feature","id":238,"geometry":{"type":"Point","coordinates":[110.32460040000007,-7.8109494999999356,0]},"properties":{"OBJECTID":238,"Name":"TPB UMY 2","FolderPath":"overpass-turbo.eu export","SymbolID":0,"AltMode":-1,"Base":0,"Snippet":"","PopupInfo":"","HasLabel":-1,"LabelID":0}},{"type":"Feature","id":239,"geometry":{"type":"Point","coordinates":[110.32445560000008,-7.810728299999937,0]},"properties":{"OBJECTID":239,"Name":"TPB UMY 1","FolderPath":"overpass-turbo.eu export","SymbolID":0,"AltMode":-1,"Base":0,"Snippet":"","PopupInfo":"","HasLabel":-1,"LabelID":0}},{"type":"Feature","id":240,"geometry":{"type":"Point","coordinates":[110.32901330000004,-7.8261955999999486,0]},"properties":{"OBJECTID":240,"Name":"Portabel Lapangan Kasihan 2","FolderPath":"overpass-turbo.eu export","SymbolID":0,"AltMode":-1,"Base":0,"Snippet":"","PopupInfo":"","HasLabel":-1,"LabelID":0}},{"type":"Feature","id":241,"geometry":{"type":"Point","coordinates":[110.32809200000008,-7.8250130999999783,0]},"properties":{"OBJECTID":241,"Name":"TPB Lap Kasihan","FolderPath":"overpass-turbo.eu export","SymbolID":0,"AltMode":-1,"Base":0,"Snippet":"","PopupInfo":"","HasLabel":-1,"LabelID":0}},{"type":"Feature","id":242,"geometry":{"type":"Point","coordinates":[110.32419410000006,-7.8184357999999747,0]},"properties":{"OBJECTID":242,"Name":"TPB Universitas Alma Ata","FolderPath":"overpass-turbo.eu export","SymbolID":0,"AltMode":-1,"Base":0,"Snippet":"","PopupInfo":"","HasLabel":-1,"LabelID":0}},{"type":"Feature","id":243,"geometry":{"type":"Point","coordinates":[110.32539640000005,-7.8917966999999294,0]},"properties":{"OBJECTID":243,"Name":"TPB KH. Wahid Hasyim 2","FolderPath":"overpass-turbo.eu export","SymbolID":0,"AltMode":-1,"Base":0,"Snippet":"","PopupInfo":"","HasLabel":-1,"LabelID":0}},{"type":"Feature","id":244,"geometry":{"type":"Point","coordinates":[110.32545470000008,-7.8919719999999529,0]},"properties":{"OBJECTID":244,"Name":"TPB KH. Wahid Hasyim 1","FolderPath":"overpass-turbo.eu export","SymbolID":0,"AltMode":-1,"Base":0,"Snippet":"","PopupInfo":"","HasLabel":-1,"LabelID":0}},{"type":"Feature","id":245,"geometry":{"type":"Point","coordinates":[110.34431930000005,-7.8285206999999559,0]},"properties":{"OBJECTID":245,"Name":"TPB Gedung Madu Candhya 2","FolderPath":"overpass-turbo.eu export","SymbolID":0,"AltMode":-1,"Base":0,"Snippet":"","PopupInfo":"","HasLabel":-1,"LabelID":0}},{"type":"Feature","id":246,"geometry":{"type":"Point","coordinates":[110.34433410000008,-7.8288461999999299,0]},"properties":{"OBJECTID":246,"Name":"TPB Gedung Madu Candhya 1","FolderPath":"overpass-turbo.eu export","SymbolID":0,"AltMode":-1,"Base":0,"Snippet":"","PopupInfo":"","HasLabel":-1,"LabelID":0}},{"type":"Feature","id":247,"geometry":{"type":"Point","coordinates":[110.33251430000007,-7.8288268999999673,0]},"properties":{"OBJECTID":247,"Name":"TPB Ponpes Hamatul Quran","FolderPath":"overpass-turbo.eu export","SymbolID":0,"AltMode":-1,"Base":0,"Snippet":"","PopupInfo":"","HasLabel":-1,"LabelID":0}},{"type":"Feature","id":248,"geometry":{"type":"Point","coordinates":[110.33161640000009,-7.8285179999999741,0]},"properties":{"OBJECTID":248,"Name":"TPB Simpang Diklat DIY","FolderPath":"overpass-turbo.eu export","SymbolID":0,"AltMode":-1,"Base":0,"Snippet":"","PopupInfo":"","HasLabel":-1,"LabelID":0}},{"type":"Feature","id":249,"geometry":{"type":"Point","coordinates":[110.33767820000008,-7.8121399999999426,0]},"properties":{"OBJECTID":249,"Name":"TPB SD Sonosewu","FolderPath":"overpass-turbo.eu export","SymbolID":0,"AltMode":-1,"Base":0,"Snippet":"","PopupInfo":"","HasLabel":-1,"LabelID":0}},{"type":"Feature","id":250,"geometry":{"type":"Point","coordinates":[110.33858210000005,-7.809731099999965,0]},"properties":{"OBJECTID":250,"Name":"TPB Sonosewu Baru","FolderPath":"overpass-turbo.eu export","SymbolID":0,"AltMode":-1,"Base":0,"Snippet":"","PopupInfo":"","HasLabel":-1,"LabelID":0}},{"type":"Feature","id":251,"geometry":{"type":"Point","coordinates":[110.34071710000006,-7.8058220999999435,0]},"properties":{"OBJECTID":251,"Name":"Jalan IKIP PGRI 1 Sonosewu","FolderPath":"overpass-turbo.eu export","SymbolID":0,"AltMode":-1,"Base":0,"Snippet":"","PopupInfo":"","HasLabel":-1,"LabelID":0}},{"type":"Feature","id":252,"geometry":{"type":"Point","coordinates":[110.34174710000008,-7.8066883999999277,0]},"properties":{"OBJECTID":252,"Name":"TPB IKIP PGRI 1 Sonosewu","FolderPath":"overpass-turbo.eu export","SymbolID":0,"AltMode":-1,"Base":0,"Snippet":"","PopupInfo":"","HasLabel":-1,"LabelID":0}},{"type":"Feature","id":253,"geometry":{"type":"Point","coordinates":[110.36636170000008,-7.833909399999925,0]},"properties":{"OBJECTID":253,"Name":"Poratabel Salakan Baru","FolderPath":"overpass-turbo.eu export","SymbolID":0,"AltMode":-1,"Base":0,"Snippet":"","PopupInfo":"","HasLabel":-1,"LabelID":0}},{"type":"Feature","id":254,"geometry":{"type":"Point","coordinates":[110.37374850000003,-7.8364071999999396,0]},"properties":{"OBJECTID":254,"Name":"TPB Simpang Wojo 1","FolderPath":"overpass-turbo.eu export","SymbolID":0,"AltMode":-1,"Base":0,"Snippet":"","PopupInfo":"","HasLabel":-1,"LabelID":0}},{"type":"Feature","id":255,"geometry":{"type":"Point","coordinates":[110.36289630000005,-7.8347836999999458,0]},"properties":{"OBJECTID":255,"Name":"TPB Astra Izuzu","FolderPath":"overpass-turbo.eu export","SymbolID":0,"AltMode":-1,"Base":0,"Snippet":"","PopupInfo":"","HasLabel":-1,"LabelID":0}},{"type":"Feature","id":256,"geometry":{"type":"Point","coordinates":[110.36241350000006,-7.83426819999994,0]},"properties":{"OBJECTID":256,"Name":"Portabel ATK Yogyakarta","FolderPath":"overpass-turbo.eu export","SymbolID":0,"AltMode":-1,"Base":0,"Snippet":"","PopupInfo":"","HasLabel":-1,"LabelID":0}},{"type":"Feature","id":257,"geometry":{"type":"Point","coordinates":[110.37348170000007,-7.8257119999999532,0]},"properties":{"OBJECTID":257,"Name":"TPB Pasar Telo 2","FolderPath":"overpass-turbo.eu export","SymbolID":0,"AltMode":-1,"Base":0,"Snippet":"","PopupInfo":"","HasLabel":-1,"LabelID":0}},{"type":"Feature","id":258,"geometry":{"type":"Point","coordinates":[110.36536230000007,-7.8216340999999261,0]},"properties":{"OBJECTID":258,"Name":"TPB Hotel Pramesthi","FolderPath":"overpass-turbo.eu export","SymbolID":0,"AltMode":-1,"Base":0,"Snippet":"","PopupInfo":"","HasLabel":-1,"LabelID":0}},{"type":"Feature","id":259,"geometry":{"type":"Point","coordinates":[110.36225130000008,-7.8208730999999716,0]},"properties":{"OBJECTID":259,"Name":"TPB Ruba Grha 2","FolderPath":"overpass-turbo.eu export","SymbolID":0,"AltMode":-1,"Base":0,"Snippet":"","PopupInfo":"","HasLabel":-1,"LabelID":0}},{"type":"Feature","id":260,"geometry":{"type":"Point","coordinates":[110.36195080000005,-7.8208916999999474,0]},"properties":{"OBJECTID":260,"Name":"TPB Ruba Graha 1","FolderPath":"overpass-turbo.eu export","SymbolID":0,"AltMode":-1,"Base":0,"Snippet":"","PopupInfo":"","HasLabel":-1,"LabelID":0}},{"type":"Feature","id":261,"geometry":{"type":"Point","coordinates":[110.32681990000009,-7.8893729999999778,0]},"properties":{"OBJECTID":261,"Name":"Halte Tugu Adipura Bantul (Halte 2)","FolderPath":"overpass-turbo.eu export","SymbolID":0,"AltMode":-1,"Base":0,"Snippet":"","PopupInfo":"","HasLabel":-1,"LabelID":0}},{"type":"Feature","id":262,"geometry":{"type":"Point","coordinates":[110.33093240000005,-7.8851751999999351,0]},"properties":{"OBJECTID":262,"Name":"Pasar Bantul (Halte 2)","FolderPath":"overpass-turbo.eu export","SymbolID":0,"AltMode":-1,"Base":0,"Snippet":"","PopupInfo":"","HasLabel":-1,"LabelID":0}},{"type":"Feature","id":263,"geometry":{"type":"Point","coordinates":[110.33125360000008,-7.8850588999999331,0]},"properties":{"OBJECTID":263,"Name":"pasar bantul","FolderPath":"overpass-turbo.eu export","SymbolID":0,"AltMode":-1,"Base":0,"Snippet":"","PopupInfo":"","HasLabel":-1,"LabelID":0}},{"type":"Feature","id":264,"geometry":{"type":"Point","coordinates":[110.33579160000005,-7.8743692999999553,0]},"properties":{"OBJECTID":264,"Name":"Halte Karanggede","FolderPath":"overpass-turbo.eu export","SymbolID":0,"AltMode":-1,"Base":0,"Snippet":"","PopupInfo":"","HasLabel":-1,"LabelID":0}},{"type":"Feature","id":265,"geometry":{"type":"Point","coordinates":[110.33577450000007,-7.8748186999999348,0]},"properties":{"OBJECTID":265,"Name":"Halte SMP N 2 Bantul","FolderPath":"overpass-turbo.eu export","SymbolID":0,"AltMode":-1,"Base":0,"Snippet":"","PopupInfo":"","HasLabel":-1,"LabelID":0}},{"type":"Feature","id":266,"geometry":{"type":"Point","coordinates":[110.34135420000007,-7.8562436999999363,0]},"properties":{"OBJECTID":266,"Name":"Kantor Badan Kesatuan Bangsa & Politik (Halte 2)","FolderPath":"overpass-turbo.eu export","SymbolID":0,"AltMode":-1,"Base":0,"Snippet":"","PopupInfo":"","HasLabel":-1,"LabelID":0}},{"type":"Feature","id":267,"geometry":{"type":"Point","coordinates":[110.34136220000005,-7.8567697999999382,0]},"properties":{"OBJECTID":267,"Name":"Kantor Badan Kesatuan Bangsa & Politik","FolderPath":"overpass-turbo.eu export","SymbolID":0,"AltMode":-1,"Base":0,"Snippet":"","PopupInfo":"","HasLabel":-1,"LabelID":0}},{"type":"Feature","id":268,"geometry":{"type":"Point","coordinates":[110.35123410000006,-7.8380479999999579,0]},"properties":{"OBJECTID":268,"Name":"Pasar Niten","FolderPath":"overpass-turbo.eu export","SymbolID":0,"AltMode":-1,"Base":0,"Snippet":"","PopupInfo":"","HasLabel":-1,"LabelID":0}},{"type":"Feature","id":269,"geometry":{"type":"Point","coordinates":[110.35051260000006,-7.8387308999999732,0]},"properties":{"OBJECTID":269,"Name":"Pasar Niten (Halte 2)","FolderPath":"overpass-turbo.eu export","SymbolID":0,"AltMode":-1,"Base":0,"Snippet":"","PopupInfo":"","HasLabel":-1,"LabelID":0}},{"type":"Feature","id":270,"geometry":{"type":"Point","coordinates":[110.35400550000008,-7.8292752999999493,0]},"properties":{"OBJECTID":270,"Name":"Simpang Dongkelan","FolderPath":"overpass-turbo.eu export","SymbolID":0,"AltMode":-1,"Base":0,"Snippet":"","PopupInfo":"","HasLabel":-1,"LabelID":0}},{"type":"Feature","id":271,"geometry":{"type":"Point","coordinates":[110.35377080000006,-7.830195999999944,0]},"properties":{"OBJECTID":271,"Name":"Simpang Dongkelan (Halte 2)","FolderPath":"overpass-turbo.eu export","SymbolID":0,"AltMode":-1,"Base":0,"Snippet":"","PopupInfo":"","HasLabel":-1,"LabelID":0}},{"type":"Feature","id":272,"geometry":{"type":"Point","coordinates":[110.35586790000008,-7.8166101999999569,0]},"properties":{"OBJECTID":272,"Name":"TPB kampus UPP 2 FIP UNY","FolderPath":"overpass-turbo.eu export","SymbolID":0,"AltMode":-1,"Base":0,"Snippet":"","PopupInfo":"","HasLabel":-1,"LabelID":0}},{"type":"Feature","id":273,"geometry":{"type":"Point","coordinates":[110.35537610000006,-7.8209853999999268,0]},"properties":{"OBJECTID":273,"Name":"TPB SPBU Dukuh 1","FolderPath":"overpass-turbo.eu export","SymbolID":0,"AltMode":-1,"Base":0,"Snippet":"","PopupInfo":"","HasLabel":-1,"LabelID":0}},{"type":"Feature","id":274,"geometry":{"type":"Point","coordinates":[110.35516280000007,-7.8216423999999733,0]},"properties":{"OBJECTID":274,"Name":"Portabel SPBU Dukuh 2","FolderPath":"overpass-turbo.eu export","SymbolID":0,"AltMode":-1,"Base":0,"Snippet":"","PopupInfo":"","HasLabel":-1,"LabelID":0}},{"type":"Feature","id":275,"geometry":{"type":"Point","coordinates":[110.37689540000008,-7.8109507999999437,0]},"properties":{"OBJECTID":275,"Name":"TPB ST SRD Visi Jalan Tamsis","FolderPath":"overpass-turbo.eu export","SymbolID":0,"AltMode":-1,"Base":0,"Snippet":"","PopupInfo":"","HasLabel":-1,"LabelID":0}},{"type":"Feature","id":276,"geometry":{"type":"Point","coordinates":[110.35226000000006,-7.8081286999999406,0]},"properties":{"OBJECTID":276,"Name":"TPB Jl. Letjen S. Parman","FolderPath":"overpass-turbo.eu export","SymbolID":0,"AltMode":-1,"Base":0,"Snippet":"","PopupInfo":"","HasLabel":-1,"LabelID":0}},{"type":"Feature","id":277,"geometry":{"type":"Point","coordinates":[110.35104100000007,-7.8078589999999508,0]},"properties":{"OBJECTID":277,"Name":"TPB Muallimin","FolderPath":"overpass-turbo.eu export","SymbolID":0,"AltMode":-1,"Base":0,"Snippet":"","PopupInfo":"","HasLabel":-1,"LabelID":0}},{"type":"Feature","id":278,"geometry":{"type":"Point","coordinates":[110.34874770000005,-7.8154137999999307,0]},"properties":{"OBJECTID":278,"Name":"TPB SMK Seni 2","FolderPath":"overpass-turbo.eu export","SymbolID":0,"AltMode":-1,"Base":0,"Snippet":"","PopupInfo":"","HasLabel":-1,"LabelID":0}},{"type":"Feature","id":279,"geometry":{"type":"Point","coordinates":[110.34904940000007,-7.8144158999999718,0]},"properties":{"OBJECTID":279,"Name":"TPB SMK Seni 1","FolderPath":"overpass-turbo.eu export","SymbolID":0,"AltMode":-1,"Base":0,"Snippet":"","PopupInfo":"","HasLabel":-1,"LabelID":0}},{"type":"Feature","id":280,"geometry":{"type":"Point","coordinates":[110.34963210000006,-7.8108162999999422,0]},"properties":{"OBJECTID":280,"Name":"TPB RS Bersalin Fajar","FolderPath":"overpass-turbo.eu export","SymbolID":0,"AltMode":-1,"Base":0,"Snippet":"","PopupInfo":"","HasLabel":-1,"LabelID":0}},{"type":"Feature","id":281,"geometry":{"type":"Point","coordinates":[110.35016170000006,-7.809171699999979,0]},"properties":{"OBJECTID":281,"Name":"TPB Pasar Legi","FolderPath":"overpass-turbo.eu export","SymbolID":0,"AltMode":-1,"Base":0,"Snippet":"","PopupInfo":"","HasLabel":-1,"LabelID":0}},{"type":"Feature","id":282,"geometry":{"type":"Point","coordinates":[110.43154210000006,-7.7678860999999415,0]},"properties":{"OBJECTID":282,"Name":"Disnakertrans DI Yogyakarta","FolderPath":"overpass-turbo.eu export","SymbolID":0,"AltMode":-1,"Base":0,"Snippet":"","PopupInfo":"","HasLabel":-1,"LabelID":0}},{"type":"Feature","id":283,"geometry":{"type":"Point","coordinates":[110.47150400000004,-7.7672644999999534,0]},"properties":{"OBJECTID":283,"Name":"Halte Pasar Kalasan 2","FolderPath":"overpass-turbo.eu export","SymbolID":0,"AltMode":-1,"Base":0,"Snippet":"","PopupInfo":"","HasLabel":-1,"LabelID":0}},{"type":"Feature","id":284,"geometry":{"type":"Point","coordinates":[110.38478580000009,-7.7524935999999798,0]},"properties":{"OBJECTID":284,"Name":"Halte Superindo Kaliurang 2","FolderPath":"overpass-turbo.eu export","SymbolID":0,"AltMode":-1,"Base":0,"Snippet":"","PopupInfo":"","HasLabel":-1,"LabelID":0}},{"type":"Feature","id":285,"geometry":{"type":"Point","coordinates":[110.38463560000008,-7.7525333999999475,0]},"properties":{"OBJECTID":285,"Name":"Halte Superindo kaliurang","FolderPath":"overpass-turbo.eu export","SymbolID":0,"AltMode":-1,"Base":0,"Snippet":"","PopupInfo":"","HasLabel":-1,"LabelID":0}},{"type":"Feature","id":286,"geometry":{"type":"Point","coordinates":[110.38940190000005,-7.7446745999999393,0]},"properties":{"OBJECTID":286,"Name":"Halte Pasar Colombo 2","FolderPath":"overpass-turbo.eu export","SymbolID":0,"AltMode":-1,"Base":0,"Snippet":"","PopupInfo":"","HasLabel":-1,"LabelID":0}},{"type":"Feature","id":287,"geometry":{"type":"Point","coordinates":[110.38879040000006,-7.7453416999999263,0]},"properties":{"OBJECTID":287,"Name":"Halte Pasar Colombo","FolderPath":"overpass-turbo.eu export","SymbolID":0,"AltMode":-1,"Base":0,"Snippet":"","PopupInfo":"","HasLabel":-1,"LabelID":0}},{"type":"Feature","id":288,"geometry":{"type":"Point","coordinates":[110.39780660000008,-7.7302201999999625,0]},"properties":{"OBJECTID":288,"Name":"Halte Simpang Kaliurang Palem Raya 2","FolderPath":"overpass-turbo.eu export","SymbolID":0,"AltMode":-1,"Base":0,"Snippet":"","PopupInfo":"","HasLabel":-1,"LabelID":0}},{"type":"Feature","id":289,"geometry":{"type":"Point","coordinates":[110.39752360000006,-7.7303995999999415,0]},"properties":{"OBJECTID":289,"Name":"Halte Simpang Kaliurang Palem Raya","FolderPath":"overpass-turbo.eu export","SymbolID":0,"AltMode":-1,"Base":0,"Snippet":"","PopupInfo":"","HasLabel":-1,"LabelID":0}},{"type":"Feature","id":290,"geometry":{"type":"Point","coordinates":[110.39020390000007,-7.8324479999999426,0]},"properties":{"OBJECTID":290,"Name":"TPB Pasar Giwangan 2","FolderPath":"overpass-turbo.eu export","SymbolID":0,"AltMode":-1,"Base":0,"Snippet":"","PopupInfo":"","HasLabel":-1,"LabelID":0}},{"type":"Feature","id":291,"geometry":{"type":"Point","coordinates":[110.39001080000008,-7.8317305999999576,0]},"properties":{"OBJECTID":291,"Name":"TPB Pasar Giwangan 1","FolderPath":"overpass-turbo.eu export","SymbolID":0,"AltMode":-1,"Base":0,"Snippet":"","PopupInfo":"","HasLabel":-1,"LabelID":0}},{"type":"Feature","id":292,"geometry":{"type":"Point","coordinates":[110.39288070000003,-7.7387158999999315,0]},"properties":{"OBJECTID":292,"Name":"Halte PLN Gardu Induk Kentungan","FolderPath":"overpass-turbo.eu export","SymbolID":0,"AltMode":-1,"Base":0,"Snippet":"","PopupInfo":"","HasLabel":-1,"LabelID":0}},{"type":"Feature","id":293,"geometry":{"type":"Point","coordinates":[110.39237650000007,-7.7393244999999524,0]},"properties":{"OBJECTID":293,"Name":"Terminal Bangunan","FolderPath":"overpass-turbo.eu export","SymbolID":0,"AltMode":-1,"Base":0,"Snippet":"","PopupInfo":"","HasLabel":-1,"LabelID":0}},{"type":"Feature","id":294,"geometry":{"type":"Point","coordinates":[110.43425650000006,-7.7431489999999599,0]},"properties":{"OBJECTID":294,"Name":"SMA Budi Mulia Dua (Halte 2)","FolderPath":"overpass-turbo.eu export","SymbolID":0,"AltMode":-1,"Base":0,"Snippet":"","PopupInfo":"","HasLabel":-1,"LabelID":0}},{"type":"Feature","id":295,"geometry":{"type":"Point","coordinates":[110.43415720000007,-7.7428220999999553,0]},"properties":{"OBJECTID":295,"Name":"SMA Budi Mulia Dua","FolderPath":"overpass-turbo.eu export","SymbolID":0,"AltMode":-1,"Base":0,"Snippet":"","PopupInfo":"","HasLabel":-1,"LabelID":0}},{"type":"Feature","id":296,"geometry":{"type":"Point","coordinates":[110.40252600000008,-7.7220106999999416,0]},"properties":{"OBJECTID":296,"Name":"Halte Puskesmas Ngaglik 2","FolderPath":"overpass-turbo.eu export","SymbolID":0,"AltMode":-1,"Base":0,"Snippet":"","PopupInfo":"","HasLabel":-1,"LabelID":0}},{"type":"Feature","id":297,"geometry":{"type":"Point","coordinates":[110.40251460000007,-7.7218392999999423,0]},"properties":{"OBJECTID":297,"Name":"Halte Puskesmas Ngaglik 1","FolderPath":"overpass-turbo.eu export","SymbolID":0,"AltMode":-1,"Base":0,"Snippet":"","PopupInfo":"","HasLabel":-1,"LabelID":0}},{"type":"Feature","id":298,"geometry":{"type":"Point","coordinates":[110.40125460000007,-7.7242692999999463,0]},"properties":{"OBJECTID":298,"Name":"Halte TK Bias Kaliurang","FolderPath":"overpass-turbo.eu export","SymbolID":0,"AltMode":-1,"Base":0,"Snippet":"","PopupInfo":"","HasLabel":-1,"LabelID":0}},{"type":"Feature","id":299,"geometry":{"type":"Point","coordinates":[110.40121030000006,-7.7241230999999289,0]},"properties":{"OBJECTID":299,"Name":"Halte Kantor Camat Ngaglik","FolderPath":"overpass-turbo.eu export","SymbolID":0,"AltMode":-1,"Base":0,"Snippet":"","PopupInfo":"","HasLabel":-1,"LabelID":0}},{"type":"Feature","id":300,"geometry":{"type":"Point","coordinates":[110.32936470000004,-7.8873982999999726,0]},"properties":{"OBJECTID":300,"Name":"Halte Eks. Stasiun KA Bantul","FolderPath":"overpass-turbo.eu export","SymbolID":0,"AltMode":-1,"Base":0,"Snippet":"","PopupInfo":"","HasLabel":-1,"LabelID":0}},{"type":"Feature","id":301,"geometry":{"type":"Point","coordinates":[110.32276210000003,-7.8981695999999602,0]},"properties":{"OBJECTID":301,"Name":"SMA N 1 Bantul","FolderPath":"overpass-turbo.eu export","SymbolID":0,"AltMode":-1,"Base":0,"Snippet":"","PopupInfo":"","HasLabel":-1,"LabelID":0}},{"type":"Feature","id":302,"geometry":{"type":"Point","coordinates":[110.40600080000007,-7.7160297999999443,0]},"properties":{"OBJECTID":302,"Name":"Halte SMP Negeri 2 Ngaglik 2","FolderPath":"overpass-turbo.eu export","SymbolID":0,"AltMode":-1,"Base":0,"Snippet":"","PopupInfo":"","HasLabel":-1,"LabelID":0}},{"type":"Feature","id":303,"geometry":{"type":"Point","coordinates":[110.40603700000008,-7.7157054999999559,0]},"properties":{"OBJECTID":303,"Name":"Halte SMP Negeri 2 Ngaglik","FolderPath":"overpass-turbo.eu export","SymbolID":0,"AltMode":-1,"Base":0,"Snippet":"","PopupInfo":"","HasLabel":-1,"LabelID":0}},{"type":"Feature","id":304,"geometry":{"type":"Point","coordinates":[110.38967520000006,-7.8226125999999567,0]},"properties":{"OBJECTID":304,"Name":"Halte Muhammadiyah 3","FolderPath":"overpass-turbo.eu export","SymbolID":0,"AltMode":-1,"Base":0,"Snippet":"","PopupInfo":"","HasLabel":-1,"LabelID":0}},{"type":"Feature","id":305,"geometry":{"type":"Point","coordinates":[110.38731920000004,-7.8184629999999515,0]},"properties":{"OBJECTID":305,"Name":"TPB Jl. Pramuka","FolderPath":"overpass-turbo.eu export","SymbolID":0,"AltMode":-1,"Base":0,"Snippet":"","PopupInfo":"","HasLabel":-1,"LabelID":0}},{"type":"Feature","id":306,"geometry":{"type":"Point","coordinates":[110.37646290000004,-7.8197596999999632,0]},"properties":{"OBJECTID":306,"Name":"TPB UNU Yogyakarta","FolderPath":"overpass-turbo.eu export","SymbolID":0,"AltMode":-1,"Base":0,"Snippet":"","PopupInfo":"","HasLabel":-1,"LabelID":0}},{"type":"Feature","id":307,"geometry":{"type":"Point","coordinates":[110.37767400000007,-7.8228328999999803,0]},"properties":{"OBJECTID":307,"Name":"TPB Widya Wiwaha 1","FolderPath":"overpass-turbo.eu export","SymbolID":0,"AltMode":-1,"Base":0,"Snippet":"","PopupInfo":"","HasLabel":-1,"LabelID":0}},{"type":"Feature","id":308,"geometry":{"type":"Point","coordinates":[110.37752780000005,-7.8226428999999484,0]},"properties":{"OBJECTID":308,"Name":"TPB Widya Wiwaha 2","FolderPath":"overpass-turbo.eu export","SymbolID":0,"AltMode":-1,"Base":0,"Snippet":"","PopupInfo":"","HasLabel":-1,"LabelID":0}},{"type":"Feature","id":309,"geometry":{"type":"Point","coordinates":[110.33226280000008,-7.8819829999999342,0]},"properties":{"OBJECTID":309,"Name":"Halte BRI Cabang Bantul","FolderPath":"overpass-turbo.eu export","SymbolID":0,"AltMode":-1,"Base":0,"Snippet":"","PopupInfo":"","HasLabel":-1,"LabelID":0}},{"type":"Feature","id":310,"geometry":{"type":"Point","coordinates":[110.43381530000005,-7.7556143999999563,0]},"properties":{"OBJECTID":310,"Name":"Kantor Urusan Agama Depok (Halte 2)","FolderPath":"overpass-turbo.eu export","SymbolID":0,"AltMode":-1,"Base":0,"Snippet":"","PopupInfo":"","HasLabel":-1,"LabelID":0}},{"type":"Feature","id":311,"geometry":{"type":"Point","coordinates":[110.43372680000004,-7.7556468999999311,0]},"properties":{"OBJECTID":311,"Name":"Kantor Urusan Agama Depok","FolderPath":"overpass-turbo.eu export","SymbolID":0,"AltMode":-1,"Base":0,"Snippet":"","PopupInfo":"","HasLabel":-1,"LabelID":0}},{"type":"Feature","id":312,"geometry":{"type":"Point","coordinates":[110.43457570000004,-7.7504723999999783,0]},"properties":{"OBJECTID":312,"Name":"MAN 2 Sleman (Halte 2)","FolderPath":"overpass-turbo.eu export","SymbolID":0,"AltMode":-1,"Base":0,"Snippet":"","PopupInfo":"","HasLabel":-1,"LabelID":0}},{"type":"Feature","id":313,"geometry":{"type":"Point","coordinates":[110.43448820000003,-7.7503756999999496,0]},"properties":{"OBJECTID":313,"Name":"MAN 2 Sleman","FolderPath":"overpass-turbo.eu export","SymbolID":0,"AltMode":-1,"Base":0,"Snippet":"","PopupInfo":"","HasLabel":-1,"LabelID":0}},{"type":"Feature","id":314,"geometry":{"type":"Point","coordinates":[110.43145360000005,-7.7652210999999625,0]},"properties":{"OBJECTID":314,"Name":"SMKN 1 Depok","FolderPath":"overpass-turbo.eu export","SymbolID":0,"AltMode":-1,"Base":0,"Snippet":"","PopupInfo":"","HasLabel":-1,"LabelID":0}},{"type":"Feature","id":315,"geometry":{"type":"Point","coordinates":[110.43152060000006,-7.7656329999999798,0]},"properties":{"OBJECTID":315,"Name":"SMKN 1 Depok (Halte 2)","FolderPath":"overpass-turbo.eu export","SymbolID":0,"AltMode":-1,"Base":0,"Snippet":"","PopupInfo":"","HasLabel":-1,"LabelID":0}},{"type":"Feature","id":316,"geometry":{"type":"Point","coordinates":[110.33945380000006,-7.8633345999999733,0]},"properties":{"OBJECTID":316,"Name":"Simpang Cepit (Halte2)","FolderPath":"overpass-turbo.eu export","SymbolID":0,"AltMode":-1,"Base":0,"Snippet":"","PopupInfo":"","HasLabel":-1,"LabelID":0}},{"type":"Feature","id":317,"geometry":{"type":"Point","coordinates":[110.33950140000007,-7.8636680999999271,0]},"properties":{"OBJECTID":317,"Name":"Simpang Cepit","FolderPath":"overpass-turbo.eu export","SymbolID":0,"AltMode":-1,"Base":0,"Snippet":"","PopupInfo":"","HasLabel":-1,"LabelID":0}},{"type":"Feature","id":318,"geometry":{"type":"Point","coordinates":[110.34349590000005,-7.8486112999999591,0]},"properties":{"OBJECTID":318,"Name":"Rocket Chicken Kasongan","FolderPath":"overpass-turbo.eu export","SymbolID":0,"AltMode":-1,"Base":0,"Snippet":"","PopupInfo":"","HasLabel":-1,"LabelID":0}},{"type":"Feature","id":319,"geometry":{"type":"Point","coordinates":[110.39619060000007,-7.8124255999999264,0]},"properties":{"OBJECTID":319,"Name":"TPB Jl. Ki Penjawi 1","FolderPath":"overpass-turbo.eu export","SymbolID":0,"AltMode":-1,"Base":0,"Snippet":"","PopupInfo":"","HasLabel":-1,"LabelID":0}},{"type":"Feature","id":320,"geometry":{"type":"Point","coordinates":[110.39391340000009,-7.8135828999999717,0]},"properties":{"OBJECTID":320,"Name":"TPB Masjid Panembahan","FolderPath":"overpass-turbo.eu export","SymbolID":0,"AltMode":-1,"Base":0,"Snippet":"","PopupInfo":"","HasLabel":-1,"LabelID":0}},{"type":"Feature","id":321,"geometry":{"type":"Point","coordinates":[110.40886130000007,-7.7110447999999678,0]},"properties":{"OBJECTID":321,"Name":"Halte SPBU Kaliurang","FolderPath":"overpass-turbo.eu export","SymbolID":0,"AltMode":-1,"Base":0,"Snippet":"","PopupInfo":"","HasLabel":-1,"LabelID":0}},{"type":"Feature","id":322,"geometry":{"type":"Point","coordinates":[110.40884520000009,-7.7108427999999662,0]},"properties":{"OBJECTID":322,"Name":"Halte Warung Sego Penyetan Banyuwangi","FolderPath":"overpass-turbo.eu export","SymbolID":0,"AltMode":-1,"Base":0,"Snippet":"","PopupInfo":"","HasLabel":-1,"LabelID":0}},{"type":"Feature","id":323,"geometry":{"type":"Point","coordinates":[110.41817660000004,-7.6953891999999655,0]},"properties":{"OBJECTID":323,"Name":"Pusat Rehabilitasi YAKKUM (Halte 2)","FolderPath":"overpass-turbo.eu export","SymbolID":0,"AltMode":-1,"Base":0,"Snippet":"","PopupInfo":"","HasLabel":-1,"LabelID":0}},{"type":"Feature","id":324,"geometry":{"type":"Point","coordinates":[110.41795130000008,-7.6955858999999691,0]},"properties":{"OBJECTID":324,"Name":"Halte Pusat Rehabilitasi Yakkum","FolderPath":"overpass-turbo.eu export","SymbolID":0,"AltMode":-1,"Base":0,"Snippet":"","PopupInfo":"","HasLabel":-1,"LabelID":0}},{"type":"Feature","id":325,"geometry":{"type":"Point","coordinates":[110.41353510000005,-7.702931299999932,0]},"properties":{"OBJECTID":325,"Name":"Halte Wedangan Kampoeng 2","FolderPath":"overpass-turbo.eu export","SymbolID":0,"AltMode":-1,"Base":0,"Snippet":"","PopupInfo":"","HasLabel":-1,"LabelID":0}},{"type":"Feature","id":326,"geometry":{"type":"Point","coordinates":[110.41351630000008,-7.702737299999967,0]},"properties":{"OBJECTID":326,"Name":"Halte Wedangan Kampoeng","FolderPath":"overpass-turbo.eu export","SymbolID":0,"AltMode":-1,"Base":0,"Snippet":"","PopupInfo":"","HasLabel":-1,"LabelID":0}},{"type":"Feature","id":327,"geometry":{"type":"Point","coordinates":[110.42510210000006,-7.7037486999999487,0]},"properties":{"OBJECTID":327,"Name":"Kantor Desa Sukoharjo","FolderPath":"overpass-turbo.eu export","SymbolID":0,"AltMode":-1,"Base":0,"Snippet":"","PopupInfo":"","HasLabel":-1,"LabelID":0}},{"type":"Feature","id":328,"geometry":{"type":"Point","coordinates":[110.42057320000004,-7.7023531999999477,0]},"properties":{"OBJECTID":328,"Name":"SD Negeri Selomulyo","FolderPath":"overpass-turbo.eu export","SymbolID":0,"AltMode":-1,"Base":0,"Snippet":"","PopupInfo":"","HasLabel":-1,"LabelID":0}},{"type":"Feature","id":329,"geometry":{"type":"Point","coordinates":[110.42044980000009,-7.7022083999999609,0]},"properties":{"OBJECTID":329,"Name":"SD Negeri Selomulyo (Halte 2)","FolderPath":"overpass-turbo.eu export","SymbolID":0,"AltMode":-1,"Base":0,"Snippet":"","PopupInfo":"","HasLabel":-1,"LabelID":0}},{"type":"Feature","id":330,"geometry":{"type":"Point","coordinates":[110.43497130000009,-7.704914199999962,0]},"properties":{"OBJECTID":330,"Name":"SMA Negeri 2 Ngaglik","FolderPath":"overpass-turbo.eu export","SymbolID":0,"AltMode":-1,"Base":0,"Snippet":"","PopupInfo":"","HasLabel":-1,"LabelID":0}},